- _id: 'urn:x-opendata:ca:on:toronto:places-of-worship:851_ossington_ave:church_of_jesus_christ_of_la'
  _source: places-of-worship
  _theme:
    - Places of Worship … Christian Church
    - Places of Worship … Church
  addressCountry: CA
  addressLocality: Toronto
  addressRegion: 'ON'
  latitude: 43.665050142
  longitude: -79.4261335643
  name: Church Of Jesus Christ Of La
  streetAddress: 851 Ossington Ave
- _id: 'urn:x-opendata:ca:on:toronto:places-of-worship:1219_dufferin_st:dufferin_saint_baptist_church'
  _source: places-of-worship
  _theme:
    - Places of Worship … Christian Church
    - Places of Worship … Church
  addressCountry: CA
  addressLocality: Toronto
  addressRegion: 'ON'
  latitude: 43.6660900901
  longitude: -79.4376961182
  name: Dufferin Saint Baptist Church
  streetAddress: 1219 Dufferin St
- _id: 'urn:x-opendata:ca:on:toronto:places-of-worship:700_dovercourt_rd:dovercourt_presbyterian_church'
  _source: places-of-worship
  _theme:
    - Places of Worship … Christian Church
    - Places of Worship … Church
  addressCountry: CA
  addressLocality: Toronto
  addressRegion: 'ON'
  latitude: 43.6591275811
  longitude: -79.4289243477
  name: Dovercourt Presbyterian Church
  streetAddress: 700 Dovercourt Rd
- _id: 'urn:x-opendata:ca:on:toronto:places-of-worship:1140_bloor_st_w:dovercourt_baptist_church'
  _source: places-of-worship
  _theme:
    - Places of Worship … Christian Church
    - Places of Worship … Church
  addressCountry: CA
  addressLocality: Toronto
  addressRegion: 'ON'
  latitude: 43.6599432743
  longitude: -79.4360227964
  name: Dovercourt Baptist Church
  streetAddress: 1140 Bloor St W
- _id: 'urn:x-opendata:ca:on:toronto:places-of-worship:524_st_clarens_ave:belarussian_autocephlous'
  _source: places-of-worship
  _theme:
    - Places of Worship … Christian Church
    - Places of Worship … Church
  addressCountry: CA
  addressLocality: Toronto
  addressRegion: 'ON'
  latitude: 43.6609536491
  longitude: -79.4430015184
  name: Belarussian Autocephlous
  streetAddress: 524 St Clarens Ave
- _id: 'urn:x-opendata:ca:on:toronto:places-of-worship:1326_bloor_st_w:the_buddhist_assocation_of_church'
  _source: places-of-worship
  _theme:
    - Places of Worship … Buddhist Temple
    - Places of Worship … Buddhist Shrine
    - Places of Worship … Temple
  addressCountry: CA
  addressLocality: Toronto
  addressRegion: 'ON'
  latitude: 43.6584374998
  longitude: -79.443366895
  name: The Buddhist Assocation Of Church
  streetAddress: 1326 Bloor St W
- _id: 'urn:x-opendata:ca:on:toronto:places-of-worship:1330_bloor_st_w:buddhist_association_of_canada'
  _source: places-of-worship
  _theme:
    - Places of Worship … Buddhist Temple
    - Places of Worship … Buddhist Shrine
    - Places of Worship … Temple
  addressCountry: CA
  addressLocality: Toronto
  addressRegion: 'ON'
  latitude: 43.658481447
  longitude: -79.4433718628
  name: Buddhist Association of Canada
  streetAddress: 1330 Bloor St W
- _id: 'urn:x-opendata:ca:on:toronto:places-of-worship:1307_bloor_st_w:church_of_the_crusaders'
  _source: places-of-worship
  _theme:
    - Places of Worship … Christian Church
    - Places of Worship … Church
  addressCountry: CA
  addressLocality: Toronto
  addressRegion: 'ON'
  latitude: 43.6580840087
  longitude: -79.4434929439
  name: Church Of The Crusaders
  streetAddress: 1307 Bloor St W
- _id: 'urn:x-opendata:ca:on:toronto:places-of-worship:1287_bloor_st_w:britten_memorial_church'
  _source: places-of-worship
  _theme:
    - Places of Worship … Christian Church
    - Places of Worship … Church
  addressCountry: CA
  addressLocality: Toronto
  addressRegion: 'ON'
  latitude: 43.6581688975
  longitude: -79.4425360365
  name: Britten Memorial Church
  streetAddress: 1287 Bloor St W
- _id: 'urn:x-opendata:ca:on:toronto:places-of-worship:7_croatia_st:our_lady_of_croatia'
  _source: places-of-worship
  _theme:
    - Places of Worship … Catholic Church
    - Places of Worship … Church
  addressCountry: CA
  addressLocality: Toronto
  addressRegion: 'ON'
  latitude: 43.6576627644
  longitude: -79.4370943476
  name: Our Lady Of Croatia
  streetAddress: 7 Croatia St
- _id: 'urn:x-opendata:ca:on:toronto:places-of-worship:512_dovercourt_rd:apostles_of_infinite_love'
  _source: places-of-worship
  _theme:
    - Places of Worship … Christian Church
    - Places of Worship … Church
  addressCountry: CA
  addressLocality: Toronto
  addressRegion: 'ON'
  latitude: 43.6553736975
  longitude: -79.4273999851
  name: Apostles Of Infinite Love
  streetAddress: 512 Dovercourt Rd
- _id: 'urn:x-opendata:ca:on:toronto:places-of-worship:631_crawford_st:crawford_street_church'
  _source: places-of-worship
  _theme:
    - Places of Worship … Christian Church
    - Places of Worship … Church
  addressCountry: CA
  addressLocality: Toronto
  addressRegion: 'ON'
  latitude: 43.6606465459
  longitude: -79.4209064231
  name: Crawford Street Church
  streetAddress: 631 Crawford St
- _id: 'urn:x-opendata:ca:on:toronto:places-of-worship:469_manning_ave:church_of_saint_mary_magdalene'
  _source: places-of-worship
  _theme:
    - Places of Worship … Christian Church
    - Places of Worship … Church
  addressCountry: CA
  addressLocality: Toronto
  addressRegion: 'ON'
  latitude: 43.6590283957
  longitude: -79.4137720069
  name: Church Of Saint Mary Magdalene
  streetAddress: 469 Manning Ave
- _id: 'urn:x-opendata:ca:on:toronto:places-of-worship:456_college_st:college_street_united_church'
  _source: places-of-worship
  _theme:
    - Places of Worship … Christian Church
    - Places of Worship … Church
  addressCountry: CA
  addressLocality: Toronto
  addressRegion: 'ON'
  latitude: 43.6566249036
  longitude: -79.4083695383
  name: College Street United Church
  streetAddress: 456 College St
- _id: 'urn:x-opendata:ca:on:toronto:places-of-worship:297_college_st:zen_buddhist_temple'
  _source: places-of-worship
  _theme:
    - Places of Worship … Buddhist Temple
    - Places of Worship … Buddhist Shrine
    - Places of Worship … Temple
  addressCountry: CA
  addressLocality: Toronto
  addressRegion: 'ON'
  latitude: 43.6572011307
  longitude: -79.4014735279
  name: Zen Buddhist Temple
  streetAddress: 297 College St
- _id: 'urn:x-opendata:ca:on:toronto:places-of-worship:427_bloor_st_w:bathurst_united_church'
  _source: places-of-worship
  _theme:
    - Places of Worship … Christian Church
    - Places of Worship … Church
  addressCountry: CA
  addressLocality: Toronto
  addressRegion: 'ON'
  latitude: 43.6660479757
  longitude: -79.4057110596
  name: Bathurst United Church
  streetAddress: 427 Bloor St W
- _id: 'urn:x-opendata:ca:on:toronto:places-of-worship:300_bloor_st_w:bloor_saint_united_church'
  _source: places-of-worship
  _theme:
    - Places of Worship … Christian Church
    - Places of Worship … Church
  addressCountry: CA
  addressLocality: Toronto
  addressRegion: 'ON'
  latitude: 43.6674031767
  longitude: -79.4020180395
  name: Bloor Saint United Church
  streetAddress: 300 Bloor St W
- _id: 'urn:x-opendata:ca:on:toronto:places-of-worship:455_huron_st:covenant_christian_church'
  _source: places-of-worship
  _theme:
    - Places of Worship … Christian Church
    - Places of Worship … Church
  addressCountry: CA
  addressLocality: Toronto
  addressRegion: 'ON'
  latitude: 43.6677664237
  longitude: -79.4014416946
  name: Covenant Christian Church
  streetAddress: 455 Huron St
- _id: 'urn:x-opendata:ca:on:toronto:places-of-worship:288_bloor_st_w:toronto_bahai_centre'
  _source: places-of-worship
  _theme:
    - Places of Worship … Bahai Temple
    - Places of Worship … Bahai Place of Worship
  addressCountry: CA
  addressLocality: Toronto
  addressRegion: 'ON'
  latitude: 43.6674377197
  longitude: -79.4013341968
  name: Toronto Bahai Centre
  streetAddress: 288 Bloor St W
- _id: 'urn:x-opendata:ca:on:toronto:places-of-worship:11_madison_ave:tengye_ling_tibetan_temple'
  _source: places-of-worship
  _theme:
    - Places of Worship … Buddhist Temple
    - Places of Worship … Buddhist Shrine
    - Places of Worship … Temple
  addressCountry: CA
  addressLocality: Toronto
  addressRegion: 'ON'
  latitude: 43.6678016151
  longitude: -79.4027571105
  name: Tengye Ling Tibetan Temple
  streetAddress: 11 Madison Ave
- _id: 'urn:x-opendata:ca:on:toronto:places-of-worship:162_bloor_st_w:church_of_the_redeemer'
  _source: places-of-worship
  _theme:
    - Places of Worship … Christian Church
    - Places of Worship … Church
  addressCountry: CA
  addressLocality: Toronto
  addressRegion: 'ON'
  latitude: 43.6691376497
  longitude: -79.3940146956
  name: Church Of The Redeemer
  streetAddress: 162 Bloor St W
- _id: 'urn:x-opendata:ca:on:toronto:places-of-worship:55_maitland_st:nalandabodhi_toronto_study_group'
  _source: places-of-worship
  _theme:
    - Places of Worship … Buddhist Temple
    - Places of Worship … Buddhist Shrine
    - Places of Worship … Temple
  addressCountry: CA
  addressLocality: Toronto
  addressRegion: 'ON'
  latitude: 43.6641163858
  longitude: -79.3816045235
  name: Nalandabodhi Toronto Study Group
  streetAddress: 55 Maitland St
- _id: 'urn:x-opendata:ca:on:toronto:places-of-worship:25_st_nicholas_st:toronto_diamond_way_buddhist_center'
  _source: places-of-worship
  _theme:
    - Places of Worship … Buddhist Temple
    - Places of Worship … Buddhist Shrine
    - Places of Worship … Temple
  addressCountry: CA
  addressLocality: Toronto
  addressRegion: 'ON'
  latitude: 43.6656575351
  longitude: -79.3856294366
  name: Toronto Diamond Way Buddhist Center
  streetAddress: 25 St Nicholas St
- _id: 'urn:x-opendata:ca:on:toronto:places-of-worship:22_cecil_st:canadian_chinese_buddhist_ming_yuet_society'
  _source: places-of-worship
  _theme:
    - Places of Worship … Buddhist Temple
    - Places of Worship … Buddhist Shrine
    - Places of Worship … Temple
  addressCountry: CA
  addressLocality: Toronto
  addressRegion: 'ON'
  latitude: 43.6570749163
  longitude: -79.3959798897
  name: Canadian Chinese Buddhist Ming-Yuet Society
  streetAddress: 22 Cecil St
- _id: 'urn:x-opendata:ca:on:toronto:places-of-worship:24_cecil_st:church_of_the_toronto_nians'
  _source: places-of-worship
  _theme:
    - Places of Worship … Christian Church
    - Places of Worship … Church
  addressCountry: CA
  addressLocality: Toronto
  addressRegion: 'ON'
  latitude: 43.656960813
  longitude: -79.3961562962
  name: Church Of The Toronto Nians
  streetAddress: 24 Cecil St
- _id: 'urn:x-opendata:ca:on:toronto:places-of-worship:204_beverley_st:chuen_te_buddhist_society'
  _source: places-of-worship
  _theme:
    - Places of Worship … Buddhist Temple
    - Places of Worship … Buddhist Shrine
    - Places of Worship … Temple
  addressCountry: CA
  addressLocality: Toronto
  addressRegion: 'ON'
  latitude: 43.6567885982
  longitude: -79.3952261526
  name: Chuen Te Buddhist Society
  streetAddress: 204 Beverley St
- _id: 'urn:x-opendata:ca:on:toronto:places-of-worship:177_beverley_st:chinese_presbyterian_church'
  _source: places-of-worship
  _theme:
    - Places of Worship … Christian Church
    - Places of Worship … Church
  addressCountry: CA
  addressLocality: Toronto
  addressRegion: 'ON'
  latitude: 43.6555777735
  longitude: -79.3942510896
  name: Chinese Presbyterian Church
  streetAddress: 177 Beverley St
- _id: 'urn:x-opendata:ca:on:toronto:places-of-worship:197_john_st:church_of_saint_george'
  _source: places-of-worship
  _theme:
    - Places of Worship … Christian Church
    - Places of Worship … Church
  addressCountry: CA
  addressLocality: Toronto
  addressRegion: 'ON'
  latitude: 43.6515459365
  longitude: -79.3909674544
  name: Church Of Saint George
  streetAddress: 197 John St
- _id: 'urn:x-opendata:ca:on:toronto:places-of-worship:450_dundas_st_w:chinese_gospel_church'
  _source: places-of-worship
  _theme:
    - Places of Worship … Christian Church
    - Places of Worship … Church
  addressCountry: CA
  addressLocality: Toronto
  addressRegion: 'ON'
  latitude: 43.653585196
  longitude: -79.396039164
  name: Chinese Gospel Church
  streetAddress: 450 Dundas St W
- _id: 'urn:x-opendata:ca:on:toronto:places-of-worship:257_euclid_ave:assemblies_of_the_first_born'
  _source: places-of-worship
  _theme:
    - Places of Worship … Christian Church
    - Places of Worship … Church
  addressCountry: CA
  addressLocality: Toronto
  addressRegion: 'ON'
  latitude: 43.6527117304
  longitude: -79.4098782545
  name: Assemblies Of The First Born
  streetAddress: 257 Euclid Ave
- _id: 'urn:x-opendata:ca:on:toronto:places-of-worship:300_bathurst_st:buddhist_education_foundation_for_canada'
  _source: places-of-worship
  _theme:
    - Places of Worship … Buddhist Temple
    - Places of Worship … Buddhist Shrine
    - Places of Worship … Temple
  addressCountry: CA
  addressLocality: Toronto
  addressRegion: 'ON'
  latitude: 43.6507778876
  longitude: -79.4057722063
  name: Buddhist Education Foundation for Canada
  streetAddress: 300 Bathurst St
- _id: 'urn:x-opendata:ca:on:toronto:places-of-worship:300_bathurst_st:tai_bay_buddhist_temple'
  _source: places-of-worship
  _theme:
    - Places of Worship … Buddhist Temple
    - Places of Worship … Buddhist Shrine
    - Places of Worship … Temple
  addressCountry: CA
  addressLocality: Toronto
  addressRegion: 'ON'
  latitude: 43.6507778876
  longitude: -79.4057722063
  name: Tai Bay Buddhist Temple
  streetAddress: 300 Bathurst St
- _id: 'urn:x-opendata:ca:on:toronto:places-of-worship:300_bathurst_st:ching_kwok_buddhist_temple'
  _source: places-of-worship
  _theme:
    - Places of Worship … Buddhist Temple
    - Places of Worship … Buddhist Shrine
    - Places of Worship … Temple
  addressCountry: CA
  addressLocality: Toronto
  addressRegion: 'ON'
  latitude: 43.6507778876
  longitude: -79.4057722063
  name: Ching Kwok Buddhist Temple
  streetAddress: 300 Bathurst St
- _id: 'urn:x-opendata:ca:on:toronto:places-of-worship:276_bathurst_st:church_of_the_assumption'
  _source: places-of-worship
  _theme:
    - Places of Worship … Christian Church
    - Places of Worship … Church
  addressCountry: CA
  addressLocality: Toronto
  addressRegion: 'ON'
  latitude: 43.6501050103
  longitude: -79.4054824636
  name: Church Of The Assumption
  streetAddress: 276 Bathurst St
- _id: 'urn:x-opendata:ca:on:toronto:places-of-worship:20_claremont_st:chinese_grace_baptist_church'
  _source: places-of-worship
  _theme:
    - Places of Worship … Christian Church
    - Places of Worship … Church
  addressCountry: CA
  addressLocality: Toronto
  addressRegion: 'ON'
  latitude: 43.646937831
  longitude: -79.4101669773
  name: Chinese Grace Baptist Church
  streetAddress: 20 Claremont St
- _id: 'urn:x-opendata:ca:on:toronto:places-of-worship:573_queen_st_w:evangel_hall'
  _source: places-of-worship
  _theme:
    - Places of Worship … Christian Church
    - Places of Worship … Church
  addressCountry: CA
  addressLocality: Toronto
  addressRegion: 'ON'
  latitude: 43.6475904618
  longitude: -79.4010080856
  name: Evangel Hall
  streetAddress: 573 Queen St W
- _id: 'urn:x-opendata:ca:on:toronto:places-of-worship:185_niagara_st:fu_sien_buddhist_temple'
  _source: places-of-worship
  _theme:
    - Places of Worship … Buddhist Temple
    - Places of Worship … Buddhist Shrine
    - Places of Worship … Temple
  addressCountry: CA
  addressLocality: Toronto
  addressRegion: 'ON'
  latitude: 43.6420791429
  longitude: -79.4070054251
  name: Fu Sien Buddhist Temple
  streetAddress: 185 Niagara St
- _id: 'urn:x-opendata:ca:on:toronto:places-of-worship:201_cowan_ave:church_of_the_epiphany_saint'
  _source: places-of-worship
  _theme:
    - Places of Worship … Christian Church
    - Places of Worship … Church
  addressCountry: CA
  addressLocality: Toronto
  addressRegion: 'ON'
  latitude: 43.6407548202
  longitude: -79.4322917071
  name: 'Church Of The Epiphany & Saint'
  streetAddress: 201 Cowan Ave
- _id: 'urn:x-opendata:ca:on:toronto:places-of-worship:250_dunn_ave:bonar_parkdale_presbyterian'
  _source: places-of-worship
  _theme:
    - Places of Worship … Christian Church
    - Places of Worship … Church
  addressCountry: CA
  addressLocality: Toronto
  addressRegion: 'ON'
  latitude: 43.6401488264
  longitude: -79.4346116819
  name: Bonar-Parkdale Presbyterian
  streetAddress: 250 Dunn Ave
- _id: 'urn:x-opendata:ca:on:toronto:places-of-worship:1000_queen_st_w:nine_mountains_zem_gate_soc_'
  _source: places-of-worship
  _theme:
    - Places of Worship … Buddhist Temple
    - Places of Worship … Buddhist Shrine
    - Places of Worship … Temple
  addressCountry: CA
  addressLocality: Toronto
  addressRegion: 'ON'
  latitude: 43.6444437367
  longitude: -79.4187223197
  name: Nine Mountains Zem Gate Soc.
  streetAddress: 1000 Queen St W
- _id: 'urn:x-opendata:ca:on:toronto:places-of-worship:1089_queen_st_w:church_in_the_great_hall'
  _source: places-of-worship
  _theme:
    - Places of Worship … Christian Church
    - Places of Worship … Church
  addressCountry: CA
  addressLocality: Toronto
  addressRegion: 'ON'
  latitude: 43.6432964985
  longitude: -79.4221102745
  name: Church In The Great Hall
  streetAddress: 1089 Queen St W
- _id: 'urn:x-opendata:ca:on:toronto:places-of-worship:1120a_queen_st_w:amida_temple'
  _source: places-of-worship
  _theme:
    - Places of Worship … Buddhist Temple
    - Places of Worship … Buddhist Shrine
    - Places of Worship … Temple
  addressCountry: CA
  addressLocality: Toronto
  addressRegion: 'ON'
  latitude: 43.643459337
  longitude: -79.4234838063
  name: Amida Temple
  streetAddress: 1120A Queen St W
- _id: 'urn:x-opendata:ca:on:toronto:places-of-worship:1120a_queen_st_w:chua_adida'
  _source: places-of-worship
  _theme:
    - Places of Worship … Christian Church
    - Places of Worship … Church
  addressCountry: CA
  addressLocality: Toronto
  addressRegion: 'ON'
  latitude: 43.643459337
  longitude: -79.4234838063
  name: Chua Adida
  streetAddress: 1120A Queen St W
- _id: 'urn:x-opendata:ca:on:toronto:places-of-worship:2021_lawrence_ave_e:salvation_army_scarborough_citadel'
  _source: places-of-worship
  _theme:
    - Places of Worship … Christian Church
    - Places of Worship … Church
  addressCountry: CA
  addressLocality: Toronto
  addressRegion: 'ON'
  latitude: 43.7450563709
  longitude: -79.2950132185
  name: Salvation Army Scarborough Citadel
  streetAddress: 2021 Lawrence Ave E
- _id: 'urn:x-opendata:ca:on:toronto:places-of-worship:54_moutray_st:church_of_the_first_born_apo'
  _source: places-of-worship
  _theme:
    - Places of Worship … Christian Church
    - Places of Worship … Church
  addressCountry: CA
  addressLocality: Toronto
  addressRegion: 'ON'
  latitude: 43.6516627368
  longitude: -79.4351328966
  name: Church Of The First Born Apo
  streetAddress: 54 Moutray St
- _id: 'urn:x-opendata:ca:on:toronto:places-of-worship:311_brock_ave:brock_ave_gospel_hall'
  _source: places-of-worship
  _theme:
    - Places of Worship … Christian Church
    - Places of Worship … Church
  addressCountry: CA
  addressLocality: Toronto
  addressRegion: 'ON'
  latitude: 43.6503791561
  longitude: -79.4356139053
  name: Brock Ave Gospel Hall
  streetAddress: 311 Brock Ave
- _id: 'urn:x-opendata:ca:on:toronto:places-of-worship:2550_danforth_ave:hope_united_ministries'
  _source: places-of-worship
  _theme:
    - Places of Worship … Christian Church
    - Places of Worship … Church
  addressCountry: CA
  addressLocality: Toronto
  addressRegion: 'ON'
  latitude: 43.688269701
  longitude: -79.3021991011
  name: Hope United Ministries
  streetAddress: 2550 Danforth Ave
- _id: 'urn:x-opendata:ca:on:toronto:places-of-worship:56_fern_ave:centre_of_gravity_sangha'
  _source: places-of-worship
  _theme:
    - Places of Worship … Buddhist Temple
    - Places of Worship … Buddhist Shrine
    - Places of Worship … Temple
  addressCountry: CA
  addressLocality: Toronto
  addressRegion: 'ON'
  latitude: 43.6459105993
  longitude: -79.4425251403
  name: Centre of Gravity Sangha
  streetAddress: 56 Fern Ave
- _id: 'urn:x-opendata:ca:on:toronto:places-of-worship:1a_howard_park_ave:chua_linh_son'
  _source: places-of-worship
  _theme:
    - Places of Worship … Buddhist Temple
    - Places of Worship … Buddhist Shrine
    - Places of Worship … Temple
  addressCountry: CA
  addressLocality: Toronto
  addressRegion: 'ON'
  latitude: 43.6518336314
  longitude: -79.4487491791
  name: Chua Linh-Son
  streetAddress: 1A Howard Park Ave
- _id: 'urn:x-opendata:ca:on:toronto:places-of-worship:33_high_park_gdns:toronto_zen_centre'
  _source: places-of-worship
  _theme:
    - Places of Worship … Buddhist Temple
    - Places of Worship … Buddhist Shrine
    - Places of Worship … Temple
  addressCountry: CA
  addressLocality: Toronto
  addressRegion: 'ON'
  latitude: 43.6487393718
  longitude: -79.4570033646
  name: Toronto Zen Centre
  streetAddress: 33 High Park Gdns
- _id: 'urn:x-opendata:ca:on:toronto:places-of-worship:240_roncesvalles_ave:emanuel_howard_park_united_church'
  _source: places-of-worship
  _theme:
    - Places of Worship … Christian Church
    - Places of Worship … Church
  addressCountry: CA
  addressLocality: Toronto
  addressRegion: 'ON'
  latitude: 43.6455717635
  longitude: -79.4492197224
  name: Emanuel Howard Park United Church
  streetAddress: 240 Roncesvalles Ave
- _id: 'urn:x-opendata:ca:on:toronto:places-of-worship:214_wright_ave:mindfulness_practice_community'
  _source: places-of-worship
  _theme:
    - Places of Worship … Buddhist Temple
    - Places of Worship … Buddhist Shrine
    - Places of Worship … Temple
  addressCountry: CA
  addressLocality: Toronto
  addressRegion: 'ON'
  latitude: 43.6456290171
  longitude: -79.4489211286
  name: Mindfulness Practice Community
  streetAddress: 214 Wright Ave
- _id: 'urn:x-opendata:ca:on:toronto:places-of-worship:150_roncesvalles_ave:roman_catholic_episcopal'
  _source: places-of-worship
  _theme:
    - Places of Worship … Catholic Church
    - Places of Worship … Church
  addressCountry: CA
  addressLocality: Toronto
  addressRegion: 'ON'
  latitude: 43.6438122912
  longitude: -79.4484410894
  name: Roman Catholic Episcopal
  streetAddress: 150 Roncesvalles Ave
- _id: 'urn:x-opendata:ca:on:toronto:places-of-worship:2305_bloor_st_w:saint_pius_x_church'
  _source: places-of-worship
  _theme:
    - Places of Worship … Catholic Church
    - Places of Worship … Church
  addressCountry: CA
  addressLocality: Toronto
  addressRegion: 'ON'
  latitude: 43.6502050212
  longitude: -79.4793455936
  name: Saint Pius X Church
  streetAddress: 2305 Bloor St W
- _id: 'urn:x-opendata:ca:on:toronto:places-of-worship:293_south_kingsway:farmer_memorial_baptist_church'
  _source: places-of-worship
  _theme:
    - Places of Worship … Christian Church
    - Places of Worship … Church
  addressCountry: CA
  addressLocality: Toronto
  addressRegion: 'ON'
  latitude: 43.6479256949
  longitude: -79.4843807746
  name: Farmer Memorial Baptist Church
  streetAddress: 293 South Kingsway
- _id: 'urn:x-opendata:ca:on:toronto:places-of-worship:2850_bloor_st_w:all_saints_church'
  _source: places-of-worship
  _theme:
    - Places of Worship … Christian Church
    - Places of Worship … Church
  addressCountry: CA
  addressLocality: Toronto
  addressRegion: 'ON'
  latitude: 43.6490891371
  longitude: -79.5050576075
  name: All Saints Church
  streetAddress: 2850 Bloor St W
- _id: 'urn:x-opendata:ca:on:toronto:places-of-worship:15_aldgate_ave:church_of_the_transfiguratio'
  _source: places-of-worship
  _theme:
    - Places of Worship … Christian Church
    - Places of Worship … Church
  addressCountry: CA
  addressLocality: Toronto
  addressRegion: 'ON'
  latitude: 43.6306900719
  longitude: -79.4868363077
  name: Church Of The Transfiguratio
  streetAddress: 15 Aldgate Ave
- _id: 'urn:x-opendata:ca:on:toronto:places-of-worship:23_superior_ave:connaught_masonic_hall'
  _source: places-of-worship
  _theme:
    - Places of Worship … Christian Church
    - Places of Worship … Church
  addressCountry: CA
  addressLocality: Toronto
  addressRegion: 'ON'
  latitude: 43.6154382004
  longitude: -79.4895277844
  name: Connaught Masonic Hall
  streetAddress: 23 Superior Ave
- _id: 'urn:x-opendata:ca:on:toronto:places-of-worship:329_royal_york_rd:christ_church'
  _source: places-of-worship
  _theme:
    - Places of Worship … Christian Church
    - Places of Worship … Church
  addressCountry: CA
  addressLocality: Toronto
  addressRegion: 'ON'
  latitude: 43.6170060623
  longitude: -79.4982940393
  name: Christ Church
  streetAddress: 329 Royal York Rd
- _id: 'urn:x-opendata:ca:on:toronto:places-of-worship:60_newcastle_st:society_of_saint_vincent_de_pa'
  _source: places-of-worship
  _theme:
    - Places of Worship … Catholic Church
    - Places of Worship … Church
  addressCountry: CA
  addressLocality: Toronto
  addressRegion: 'ON'
  latitude: 43.6182148842
  longitude: -79.4973074642
  name: Society Of Saint. Vincent De Pa
  streetAddress: 60 Newcastle St
- _id: 'urn:x-opendata:ca:on:toronto:places-of-worship:277_royal_york_rd:saint_leo_s_catholic_church'
  _source: places-of-worship
  _theme:
    - Places of Worship … Catholic Church
    - Places of Worship … Church
  addressCountry: CA
  addressLocality: Toronto
  addressRegion: 'ON'
  latitude: 43.6142793673
  longitude: -79.4970091168
  name: "Saint Leo's Catholic Church"
  streetAddress: 277 Royal York Rd
- _id: 'urn:x-opendata:ca:on:toronto:places-of-worship:135_adelaide_st_e:diocese_of_toronto'
  _source: places-of-worship
  _theme:
    - Places of Worship … Christian Church
    - Places of Worship … Church
  addressCountry: CA
  addressLocality: Toronto
  addressRegion: 'ON'
  latitude: 43.6512330507
  longitude: -79.3741633594
  name: Diocese Of Toronto
  streetAddress: 135 Adelaide St E
- _id: 'urn:x-opendata:ca:on:toronto:places-of-worship:160_the_esplanade:church_in_the_city'
  _source: places-of-worship
  _theme:
    - Places of Worship … Christian Church
    - Places of Worship … Church
  addressCountry: CA
  addressLocality: Toronto
  addressRegion: 'ON'
  latitude: 43.648979391
  longitude: -79.3690658122
  name: Church In The City
  streetAddress: 160 The Esplanade
- _id: 'urn:x-opendata:ca:on:toronto:places-of-worship:2685_kingston_rd:scarboro_foreign_mission'
  _source: places-of-worship
  _theme:
    - Places of Worship … Catholic Church
    - Places of Worship … Church
  addressCountry: CA
  addressLocality: Toronto
  addressRegion: 'ON'
  latitude: 43.7169161101
  longitude: -79.2408650075
  name: Scarboro Foreign Mission
  streetAddress: 2685 Kingston Rd
- _id: 'urn:x-opendata:ca:on:toronto:places-of-worship:3566_st_clair_ave_e:the_church_of_saint_george'
  _source: places-of-worship
  _theme:
    - Places of Worship … Christian Church
    - Places of Worship … Church
  addressCountry: CA
  addressLocality: Toronto
  addressRegion: 'ON'
  latitude: 43.717333329
  longitude: -79.259092429
  name: The Church Of Saint George
  streetAddress: 3566 St Clair Ave E
- _id: 'urn:x-opendata:ca:on:toronto:places-of-worship:3576_st_clair_ave_e:church_of_god'
  _source: places-of-worship
  _theme:
    - Places of Worship … Christian Church
    - Places of Worship … Church
  addressCountry: CA
  addressLocality: Toronto
  addressRegion: 'ON'
  latitude: 43.7175297688
  longitude: -79.2580080849
  name: Church Of God
  streetAddress: 3576 St Clair Ave E
- _id: 'urn:x-opendata:ca:on:toronto:places-of-worship:689_warden_ave:dominion_worship_centre'
  _source: places-of-worship
  _theme:
    - Places of Worship … Christian Church
    - Places of Worship … Church
  addressCountry: CA
  addressLocality: Toronto
  addressRegion: 'ON'
  latitude: 43.7077078734
  longitude: -79.2775776393
  name: Dominion Worship Centre
  streetAddress: 689 Warden Ave
- _id: 'urn:x-opendata:ca:on:toronto:places-of-worship:90_northline_rd:sainttheresa_s_well_of_life'
  _source: places-of-worship
  _theme:
    - Places of Worship … Christian Church
    - Places of Worship … Church
  addressCountry: CA
  addressLocality: Toronto
  addressRegion: 'ON'
  latitude: 43.7168889245
  longitude: -79.3065804272
  name: "SaintTheresa's Well Of Life"
  streetAddress: 90 Northline Rd
- _id: 'urn:x-opendata:ca:on:toronto:places-of-worship:83_sunrise_ave:christian_family_worship_cen'
  _source: places-of-worship
  _theme:
    - Places of Worship … Christian Church
    - Places of Worship … Church
  addressCountry: CA
  addressLocality: Toronto
  addressRegion: 'ON'
  latitude: 43.7179531615
  longitude: -79.306909982
  name: Christian Family Worship Cen
  streetAddress: 83 Sunrise Ave
- _id: 'urn:x-opendata:ca:on:toronto:places-of-worship:83_sunrise_ave:refuge_tabernacle_of_jesus'
  _source: places-of-worship
  _theme:
    - Places of Worship … Christian Church
    - Places of Worship … Church
  addressCountry: CA
  addressLocality: Toronto
  addressRegion: 'ON'
  latitude: 43.7179531615
  longitude: -79.306909982
  name: Refuge Tabernacle Of Jesus
  streetAddress: 83 Sunrise Ave
- _id: 'urn:x-opendata:ca:on:toronto:places-of-worship:69_sunrise_ave:true_jesus_church'
  _source: places-of-worship
  _theme:
    - Places of Worship … Christian Church
    - Places of Worship … Church
  addressCountry: CA
  addressLocality: Toronto
  addressRegion: 'ON'
  latitude: 43.7182750199
  longitude: -79.3060823683
  name: True Jesus Church
  streetAddress: 69 Sunrise Ave
- _id: 'urn:x-opendata:ca:on:toronto:places-of-worship:65_sunrise_ave:world_ablaze_ministries'
  _source: places-of-worship
  _theme:
    - Places of Worship … Christian Church
    - Places of Worship … Church
  addressCountry: CA
  addressLocality: Toronto
  addressRegion: 'ON'
  latitude: 43.7183209276
  longitude: -79.3057890463
  name: World Ablaze Ministries
  streetAddress: 65 Sunrise Ave
- _id: 'urn:x-opendata:ca:on:toronto:places-of-worship:36_cranfield_rd:church_of_god_seventh_day_'
  _source: places-of-worship
  _theme:
    - Places of Worship … Christian Church
    - Places of Worship … Church
  addressCountry: CA
  addressLocality: Toronto
  addressRegion: 'ON'
  latitude: 43.7151428889
  longitude: -79.3100953672
  name: Church Of God (Seventh Day)
  streetAddress: 36 Cranfield Rd
- _id: 'urn:x-opendata:ca:on:toronto:places-of-worship:2723_st_clair_ave_e:church_of_saint_columba'
  _source: places-of-worship
  _theme:
    - Places of Worship … Christian Church
    - Places of Worship … Church
  addressCountry: CA
  addressLocality: Toronto
  addressRegion: 'ON'
  latitude: 43.7057521385
  longitude: -79.3100825357
  name: Church Of Saint Columba
  streetAddress: 2723 St Clair Ave E
- _id: 'urn:x-opendata:ca:on:toronto:places-of-worship:2851_st_clair_ave_e:bible_stories_alive'
  _source: places-of-worship
  _theme:
    - Places of Worship … Christian Church
    - Places of Worship … Church
  addressCountry: CA
  addressLocality: Toronto
  addressRegion: 'ON'
  latitude: 43.70702602
  longitude: -79.3039706621
  name: Bible Stories Alive
  streetAddress: 2851 St Clair Ave E
- _id: 'urn:x-opendata:ca:on:toronto:places-of-worship:3170_st_clair_ave_e:our_lady_of_fatima_roman_cat'
  _source: places-of-worship
  _theme:
    - Places of Worship … Catholic Church
    - Places of Worship … Church
  addressCountry: CA
  addressLocality: Toronto
  addressRegion: 'ON'
  latitude: 43.7096758266
  longitude: -79.2941810731
  name: Our Lady Of Fatima Roman Cat
  streetAddress: 3170 St Clair Ave E
- _id: 'urn:x-opendata:ca:on:toronto:places-of-worship:3240_st_clair_ave_e:clairlea_park_presbyterian_church'
  _source: places-of-worship
  _theme:
    - Places of Worship … Christian Church
    - Places of Worship … Church
  addressCountry: CA
  addressLocality: Toronto
  addressRegion: 'ON'
  latitude: 43.7105252398
  longitude: -79.2892972355
  name: Clairlea Park Presbyterian Church
  streetAddress: 3240 St Clair Ave E
- _id: 'urn:x-opendata:ca:on:toronto:places-of-worship:383_dawes_rd:dawes_road_gospel_church'
  _source: places-of-worship
  _theme:
    - Places of Worship … Christian Church
    - Places of Worship … Church
  addressCountry: CA
  addressLocality: Toronto
  addressRegion: 'ON'
  latitude: 43.7012699156
  longitude: -79.2966706034
  name: Dawes Road Gospel Church
  streetAddress: 383 Dawes Rd
- _id: 'urn:x-opendata:ca:on:toronto:places-of-worship:975_cosburn_ave:christadelphian_ecclesia'
  _source: places-of-worship
  _theme:
    - Places of Worship … Christian Church
    - Places of Worship … Church
  addressCountry: CA
  addressLocality: Toronto
  addressRegion: 'ON'
  latitude: 43.6969313009
  longitude: -79.3113917975
  name: Christadelphian Ecclesia
  streetAddress: 975 Cosburn Ave
- _id: 'urn:x-opendata:ca:on:toronto:places-of-worship:700_milverton_blvd:church_of_the_resurrection'
  _source: places-of-worship
  _theme:
    - Places of Worship … Christian Church
    - Places of Worship … Church
  addressCountry: CA
  addressLocality: Toronto
  addressRegion: 'ON'
  latitude: 43.6889774845
  longitude: -79.314802596
  name: Church Of The Resurrection
  streetAddress: 700 Milverton Blvd
- _id: 'urn:x-opendata:ca:on:toronto:places-of-worship:363_main_st:church_of_the_nazarene'
  _source: places-of-worship
  _theme:
    - Places of Worship … Christian Church
    - Places of Worship … Church
  addressCountry: CA
  addressLocality: Toronto
  addressRegion: 'ON'
  latitude: 43.6903890163
  longitude: -79.3025876829
  name: Church Of The Nazarene
  streetAddress: 363 Main St
- _id: 'urn:x-opendata:ca:on:toronto:places-of-worship:107_dawes_rd:dentonia_park_united_church'
  _source: places-of-worship
  _theme:
    - Places of Worship … Christian Church
    - Places of Worship … Church
  addressCountry: CA
  addressLocality: Toronto
  addressRegion: 'ON'
  latitude: 43.6921002041
  longitude: -79.2966697481
  name: Dentonia Park United Church
  streetAddress: 107 Dawes Rd
- _id: 'urn:x-opendata:ca:on:toronto:places-of-worship:140_dawes_rd:faith_presbytherian_communit'
  _source: places-of-worship
  _theme:
    - Places of Worship … Christian Church
    - Places of Worship … Church
  addressCountry: CA
  addressLocality: Toronto
  addressRegion: 'ON'
  latitude: 43.6937870256
  longitude: -79.2976304201
  name: Faith Presbytherian Communit
  streetAddress: 140 Dawes Rd
- _id: 'urn:x-opendata:ca:on:toronto:places-of-worship:33_east_rd:birch_cliff_united_church'
  _source: places-of-worship
  _theme:
    - Places of Worship … Christian Church
    - Places of Worship … Church
  addressCountry: CA
  addressLocality: Toronto
  addressRegion: 'ON'
  latitude: 43.6880483221
  longitude: -79.271514223
  name: Birch Cliff United Church
  streetAddress: 33 East Rd
- _id: 'urn:x-opendata:ca:on:toronto:places-of-worship:57_byng_ave:birchcliff_orange_centre'
  _source: places-of-worship
  _theme:
    - Places of Worship … Christian Church
    - Places of Worship … Church
  addressCountry: CA
  addressLocality: Toronto
  addressRegion: 'ON'
  latitude: 43.693649798
  longitude: -79.2800239598
  name: Birchcliff Orange Centre
  streetAddress: 57 Byng Ave
- _id: 'urn:x-opendata:ca:on:toronto:places-of-worship:96_highview_ave:birchcliffe_heights_united_church'
  _source: places-of-worship
  _theme:
    - Places of Worship … Christian Church
    - Places of Worship … Church
  addressCountry: CA
  addressLocality: Toronto
  addressRegion: 'ON'
  latitude: 43.701099164
  longitude: -79.261421933
  name: Birchcliffe Heights United Church
  streetAddress: 96 Highview Ave
- _id: 'urn:x-opendata:ca:on:toronto:places-of-worship:255_blantyre_ave:fallingbrook_heights_baptist'
  _source: places-of-worship
  _theme:
    - Places of Worship … Christian Church
    - Places of Worship … Church
  addressCountry: CA
  addressLocality: Toronto
  addressRegion: 'ON'
  latitude: 43.6833717278
  longitude: -79.2818132573
  name: Fallingbrook Heights Baptist
  streetAddress: 255 Blantyre Ave
- _id: 'urn:x-opendata:ca:on:toronto:places-of-worship:35_wood_glen_rd:fallingbrook_presbyterian_church'
  _source: places-of-worship
  _theme:
    - Places of Worship … Christian Church
    - Places of Worship … Church
  addressCountry: CA
  addressLocality: Toronto
  addressRegion: 'ON'
  latitude: 43.6841846196
  longitude: -79.2756787918
  name: Fallingbrook Presbyterian Church
  streetAddress: 35 Wood Glen Rd
- _id: 'urn:x-opendata:ca:on:toronto:places-of-worship:2000_queen_st_e:bellefair_united_church'
  _source: places-of-worship
  _theme:
    - Places of Worship … Christian Church
    - Places of Worship … Church
  addressCountry: CA
  addressLocality: Toronto
  addressRegion: 'ON'
  latitude: 43.6702221799
  longitude: -79.3002260578
  name: Bellefair United Church
  streetAddress: 2000 Queen St E
- _id: 'urn:x-opendata:ca:on:toronto:places-of-worship:16_lockwood_rd:corpus_christi_rectory'
  _source: places-of-worship
  _theme:
    - Places of Worship … Christian Church
    - Places of Worship … Church
  addressCountry: CA
  addressLocality: Toronto
  addressRegion: 'ON'
  latitude: 43.6685924798
  longitude: -79.3098617611
  name: Corpus Christi Rectory
  streetAddress: 16 Lockwood Rd
- _id: 'urn:x-opendata:ca:on:toronto:places-of-worship:75_glen_manor_dr:beaches_presbyterian_church'
  _source: places-of-worship
  _theme:
    - Places of Worship … Christian Church
    - Places of Worship … Church
  addressCountry: CA
  addressLocality: Toronto
  addressRegion: 'ON'
  latitude: 43.6711781422
  longitude: -79.2922524842
  name: Beaches Presbyterian Church
  streetAddress: 75 Glen Manor Dr
- _id: 'urn:x-opendata:ca:on:toronto:places-of-worship:72_main_st:calvary_baptist_church'
  _source: places-of-worship
  _theme:
    - Places of Worship … Christian Church
    - Places of Worship … Church
  addressCountry: CA
  addressLocality: Toronto
  addressRegion: 'ON'
  latitude: 43.6810698015
  longitude: -79.2993602724
  name: Calvary Baptist Church
  streetAddress: 72 Main St
- _id: 'urn:x-opendata:ca:on:toronto:places-of-worship:200_balsam_ave:kampo_gangra_drubgyud_ling'
  _source: places-of-worship
  _theme:
    - Places of Worship … Buddhist Temple
    - Places of Worship … Buddhist Shrine
    - Places of Worship … Temple
  addressCountry: CA
  addressLocality: Toronto
  addressRegion: 'ON'
  latitude: 43.679085121
  longitude: -79.2905263677
  name: Kampo Gangra Drubgyud Ling
  streetAddress: 200 Balsam Ave
- _id: 'urn:x-opendata:ca:on:toronto:places-of-worship:84_swanwick_ave:can_po_chai_temple_inc'
  _source: places-of-worship
  _theme:
    - Places of Worship … Buddhist Temple
    - Places of Worship … Buddhist Shrine
    - Places of Worship … Temple
  addressCountry: CA
  addressLocality: Toronto
  addressRegion: 'ON'
  latitude: 43.6829085959
  longitude: -79.2973505169
  name: Can Po Chai Temple Inc
  streetAddress: 84 Swanwick Ave
- _id: 'urn:x-opendata:ca:on:toronto:places-of-worship:21_swanwick_ave:all_peoples_korean_presbyter'
  _source: places-of-worship
  _theme:
    - Places of Worship … Christian Church
    - Places of Worship … Church
  addressCountry: CA
  addressLocality: Toronto
  addressRegion: 'ON'
  latitude: 43.6815704091
  longitude: -79.3007207533
  name: All Peoples Korean Presbyter
  streetAddress: 21 Swanwick Ave
- _id: 'urn:x-opendata:ca:on:toronto:places-of-worship:2174_2178_danforth_ave:danforth_mennonite_church'
  _source: places-of-worship
  _theme:
    - Places of Worship … Christian Church
    - Places of Worship … Church
  addressCountry: CA
  addressLocality: Toronto
  addressRegion: 'ON'
  latitude: 43.6864490271
  longitude: -79.3104067305
  name: Danforth Mennonite Church
  streetAddress: 2174-2178 Danforth Ave
- _id: 'urn:x-opendata:ca:on:toronto:places-of-worship:300_wolverleigh_blvd:saint_brigid_roman_catholic_church'
  _source: places-of-worship
  _theme:
    - Places of Worship … Catholic Church
    - Places of Worship … Church
  addressCountry: CA
  addressLocality: Toronto
  addressRegion: 'ON'
  latitude: 43.6866959836
  longitude: -79.3177321969
  name: Saint Brigid Roman Catholic Church
  streetAddress: 300 Wolverleigh Blvd
- _id: 'urn:x-opendata:ca:on:toronto:places-of-worship:346_strathmore_blvd:church_of_christ'
  _source: places-of-worship
  _theme:
    - Places of Worship … Christian Church
    - Places of Worship … Church
  addressCountry: CA
  addressLocality: Toronto
  addressRegion: 'ON'
  latitude: 43.6845444788
  longitude: -79.3234242426
  name: Church Of Christ
  streetAddress: 346 Strathmore Blvd
- _id: 'urn:x-opendata:ca:on:toronto:places-of-worship:740_pape_ave:calvary_church'
  _source: places-of-worship
  _theme:
    - Places of Worship … Christian Church
    - Places of Worship … Church
  addressCountry: CA
  addressLocality: Toronto
  addressRegion: 'ON'
  latitude: 43.6805510699
  longitude: -79.3458590595
  name: Calvary Church
  streetAddress: 740 Pape Ave
- _id: 'urn:x-opendata:ca:on:toronto:places-of-worship:14_dewhurst_blvd:east_toronto_chinese_baptist'
  _source: places-of-worship
  _theme:
    - Places of Worship … Christian Church
    - Places of Worship … Church
  addressCountry: CA
  addressLocality: Toronto
  addressRegion: 'ON'
  latitude: 43.6805620371
  longitude: -79.3399843462
  name: East Toronto Chinese Baptist
  streetAddress: 14 Dewhurst Blvd
- _id: 'urn:x-opendata:ca:on:toronto:places-of-worship:1050_danforth_ave:danforth_gospel_temple'
  _source: places-of-worship
  _theme:
    - Places of Worship … Christian Church
    - Places of Worship … Church
  addressCountry: CA
  addressLocality: Toronto
  addressRegion: 'ON'
  latitude: 43.6810172029
  longitude: -79.3358705369
  name: Danforth Gospel Temple
  streetAddress: 1050 Danforth Ave
- _id: 'urn:x-opendata:ca:on:toronto:places-of-worship:1084_danforth_ave:saint_fredric_s_cathedral'
  _source: places-of-worship
  _theme:
    - Places of Worship … Catholic Church
    - Places of Worship … Church
  addressCountry: CA
  addressLocality: Toronto
  addressRegion: 'ON'
  latitude: 43.6811255982
  longitude: -79.3353534906
  name: "Saint Fredric's Cathedral"
  streetAddress: 1084 Danforth Ave
- _id: 'urn:x-opendata:ca:on:toronto:places-of-worship:20_caithness_ave:toronto_nichiren_buddhist'
  _source: places-of-worship
  _theme:
    - Places of Worship … Buddhist Temple
    - Places of Worship … Buddhist Shrine
    - Places of Worship … Temple
  addressCountry: CA
  addressLocality: Toronto
  addressRegion: 'ON'
  latitude: 43.6815616183
  longitude: -79.3354502612
  name: Toronto Nichiren Buddhist
  streetAddress: 20 Caithness Ave
- _id: 'urn:x-opendata:ca:on:toronto:places-of-worship:1099_danforth_ave:saint_catherine_of_siena_cathol'
  _source: places-of-worship
  _theme:
    - Places of Worship … Catholic Church
    - Places of Worship … Church
  addressCountry: CA
  addressLocality: Toronto
  addressRegion: 'ON'
  latitude: 43.6807568932
  longitude: -79.3347890014
  name: Saint Catherine Of Siena Cathol
  streetAddress: 1099 Danforth Ave
- _id: 'urn:x-opendata:ca:on:toronto:places-of-worship:562_jones_ave:estonian_covenant_church'
  _source: places-of-worship
  _theme:
    - Places of Worship … Christian Church
    - Places of Worship … Church
  addressCountry: CA
  addressLocality: Toronto
  addressRegion: 'ON'
  latitude: 43.6784836598
  longitude: -79.3398199798
  name: Estonian Covenant Church
  streetAddress: 562 Jones Ave
- _id: 'urn:x-opendata:ca:on:toronto:places-of-worship:1278_gerrard_st_e:chua_hoa_nghiem_temple'
  _source: places-of-worship
  _theme:
    - Places of Worship … Buddhist Temple
    - Places of Worship … Buddhist Shrine
    - Places of Worship … Temple
  addressCountry: CA
  addressLocality: Toronto
  addressRegion: 'ON'
  latitude: 43.6712929919
  longitude: -79.3275602562
  name: Chua Hoa-Nghiem Temple
  streetAddress: 1278 Gerrard St E
- _id: 'urn:x-opendata:ca:on:toronto:places-of-worship:511_horner_ave:bethel_seventh_day_adventist'
  _source: places-of-worship
  _theme:
    - Places of Worship … Christian Church
    - Places of Worship … Church
  addressCountry: CA
  addressLocality: Toronto
  addressRegion: 'ON'
  latitude: 43.6012057518
  longitude: -79.5462558688
  name: Bethel Seventh Day Adventist
  streetAddress: 511 Horner Ave
- _id: 'urn:x-opendata:ca:on:toronto:places-of-worship:10_trinity_sq:church_of_the_holy_trinity'
  _source: places-of-worship
  _theme:
    - Places of Worship … Christian Church
    - Places of Worship … Church
  addressCountry: CA
  addressLocality: Toronto
  addressRegion: 'ON'
  latitude: 43.6548378041
  longitude: -79.3813386246
  name: Church  Of The Holy Trinity
  streetAddress: 10 Trinity Sq
- _id: 'urn:x-opendata:ca:on:toronto:places-of-worship:3674_lake_shore_blvd_w:christ_the_king_catholic_church'
  _source: places-of-worship
  _theme:
    - Places of Worship … Catholic Church
    - Places of Worship … Church
  addressCountry: CA
  addressLocality: Toronto
  addressRegion: 'ON'
  latitude: 43.5942929645
  longitude: -79.5379998235
  name: Christ The King Catholic Church
  streetAddress: 3674 Lake Shore Blvd W
- _id: 'urn:x-opendata:ca:on:toronto:places-of-worship:296_judson_st:saint_rosa_lee_roman_catholic'
  _source: places-of-worship
  _theme:
    - Places of Worship … Catholic Church
    - Places of Worship … Church
  addressCountry: CA
  addressLocality: Toronto
  addressRegion: 'ON'
  latitude: 43.6133240858
  longitude: -79.5131273474
  name: Saint Rosa Lee Roman Catholic
  streetAddress: 296 Judson St
- _id: 'urn:x-opendata:ca:on:toronto:places-of-worship:1536_1540_the_queensway:queensway_cathedral'
  _source: places-of-worship
  _theme:
    - Places of Worship … Catholic Church
    - Places of Worship … Church
  addressCountry: CA
  addressLocality: Toronto
  addressRegion: 'ON'
  latitude: 43.618893232
  longitude: -79.5374388525
  name: Queensway Cathedral
  streetAddress: 1536-1540 The Queensway
- _id: 'urn:x-opendata:ca:on:toronto:places-of-worship:256_sheldon_ave:bishop_s_office'
  _source: places-of-worship
  _theme:
    - Places of Worship … Catholic Church
    - Places of Worship … Church
  addressCountry: CA
  addressLocality: Toronto
  addressRegion: 'ON'
  latitude: 43.6084801152
  longitude: -79.5465065872
  name: "Bishop's Office"
  streetAddress: 256 Sheldon Ave
- _id: 'urn:x-opendata:ca:on:toronto:places-of-worship:256_sheldon_ave:church_of_the_atonement'
  _source: places-of-worship
  _theme:
    - Places of Worship … Christian Church
    - Places of Worship … Church
  addressCountry: CA
  addressLocality: Toronto
  addressRegion: 'ON'
  latitude: 43.6084801152
  longitude: -79.5465065872
  name: Church Of The Atonement
  streetAddress: 256 Sheldon Ave
- _id: 'urn:x-opendata:ca:on:toronto:places-of-worship:62_lunness_rd:holy_family_coptic_catholic'
  _source: places-of-worship
  _theme:
    - Places of Worship … Catholic Church
    - Places of Worship … Church
  addressCountry: CA
  addressLocality: Toronto
  addressRegion: 'ON'
  latitude: 43.6067774413
  longitude: -79.5465156146
  name: Holy Family Coptic Catholic
  streetAddress: 62 Lunness Rd
- _id: 'urn:x-opendata:ca:on:toronto:places-of-worship:44_delma_dr:alderwood_united_church'
  _source: places-of-worship
  _theme:
    - Places of Worship … Christian Church
    - Places of Worship … Church
  addressCountry: CA
  addressLocality: Toronto
  addressRegion: 'ON'
  latitude: 43.6033155668
  longitude: -79.5511463272
  name: Alderwood United Church
  streetAddress: 44 Delma Dr
- _id: 'urn:x-opendata:ca:on:toronto:places-of-worship:195_the_west_mall:baptist_convention_of_ont_an'
  _source: places-of-worship
  _theme:
    - Places of Worship … Christian Church
    - Places of Worship … Church
  addressCountry: CA
  addressLocality: Toronto
  addressRegion: 'ON'
  latitude: 43.6268492356
  longitude: -79.5578308585
  name: Baptist Convention Of Ont An
  streetAddress: 195 The West Mall
- _id: 'urn:x-opendata:ca:on:toronto:places-of-worship:4258_bloor_st_w:bloordale_united_church'
  _source: places-of-worship
  _theme:
    - Places of Worship … Christian Church
    - Places of Worship … Church
  addressCountry: CA
  addressLocality: Toronto
  addressRegion: 'ON'
  latitude: 43.6346279603
  longitude: -79.5688556079
  name: Bloordale United Church
  streetAddress: 4258 Bloor St W
- _id: 'urn:x-opendata:ca:on:toronto:places-of-worship:96_shorncliffe_rd:calvary_chapel_grace_church'
  _source: places-of-worship
  _theme:
    - Places of Worship … Christian Church
    - Places of Worship … Church
  addressCountry: CA
  addressLocality: Toronto
  addressRegion: 'ON'
  latitude: 43.6251771018
  longitude: -79.5427008524
  name: Calvary Chapel Grace Church
  streetAddress: 96 Shorncliffe Rd
- _id: 'urn:x-opendata:ca:on:toronto:places-of-worship:59_jutland_rd:holy_angels_roman_catholic_church'
  _source: places-of-worship
  _theme:
    - Places of Worship … Catholic Church
    - Places of Worship … Church
  addressCountry: CA
  addressLocality: Toronto
  addressRegion: 'ON'
  latitude: 43.6282925926
  longitude: -79.518992555
  name: Holy Angels Roman Catholic Church
  streetAddress: 59 Jutland Rd
- _id: 'urn:x-opendata:ca:on:toronto:places-of-worship:5_glenora_ave:berean_baptist_church'
  _source: places-of-worship
  _theme:
    - Places of Worship … Christian Church
    - Places of Worship … Church
  addressCountry: CA
  addressLocality: Toronto
  addressRegion: 'ON'
  latitude: 43.6918972945
  longitude: -79.4385598639
  name: Berean Baptist Church
  streetAddress: 5 Glenora Ave
- _id: 'urn:x-opendata:ca:on:toronto:places-of-worship:3914_bloor_st_w:our_lady_of_peace_catholic_church'
  _source: places-of-worship
  _theme:
    - Places of Worship … Catholic Church
    - Places of Worship … Church
  addressCountry: CA
  addressLocality: Toronto
  addressRegion: 'ON'
  latitude: 43.6401612469
  longitude: -79.5448268901
  name: Our Lady Of Peace Catholic Church
  streetAddress: 3914 Bloor St W
- _id: 'urn:x-opendata:ca:on:toronto:places-of-worship:95_melbert_rd:church_of_jesus_christ_of_la'
  _source: places-of-worship
  _theme:
    - Places of Worship … Christian Church
    - Places of Worship … Church
  addressCountry: CA
  addressLocality: Toronto
  addressRegion: 'ON'
  latitude: 43.649745724
  longitude: -79.5817614314
  name: Church Of Jesus Christ Of La
  streetAddress: 95 Melbert Rd
- _id: 'urn:x-opendata:ca:on:toronto:places-of-worship:326_rexdale_blvd:bible_faith_church'
  _source: places-of-worship
  _theme:
    - Places of Worship … Christian Church
    - Places of Worship … Church
  addressCountry: CA
  addressLocality: Toronto
  addressRegion: 'ON'
  latitude: 43.7153545471
  longitude: -79.5853730449
  name: Bible Faith Church
  streetAddress: 326 Rexdale Blvd
- _id: 'urn:x-opendata:ca:on:toronto:places-of-worship:306_rexdale_blvd:deliverance_temple'
  _source: places-of-worship
  _theme:
    - Places of Worship … Christian Church
    - Places of Worship … Church
  addressCountry: CA
  addressLocality: Toronto
  addressRegion: 'ON'
  latitude: 43.7150574407
  longitude: -79.5831258442
  name: Deliverance Temple
  streetAddress: 306 Rexdale Blvd
- _id: 'urn:x-opendata:ca:on:toronto:places-of-worship:1357_martin_grove_rd:etobicoke_church_of_god'
  _source: places-of-worship
  _theme:
    - Places of Worship … Christian Church
    - Places of Worship … Church
  addressCountry: CA
  addressLocality: Toronto
  addressRegion: 'ON'
  latitude: 43.7175160901
  longitude: -79.5821705214
  name: Etobicoke Church Of God
  streetAddress: 1357 Martin Grove Rd
- _id: 'urn:x-opendata:ca:on:toronto:places-of-worship:1344_martin_grove_rd:church_of_god_prophecy'
  _source: places-of-worship
  _theme:
    - Places of Worship … Christian Church
    - Places of Worship … Church
  addressCountry: CA
  addressLocality: Toronto
  addressRegion: 'ON'
  latitude: 43.7125027276
  longitude: -79.5809152683
  name: Church Of God Prophecy
  streetAddress: 1344 Martin Grove Rd
- _id: 'urn:x-opendata:ca:on:toronto:places-of-worship:15_racine_rd:berean_church_of_god_at_t_o'
  _source: places-of-worship
  _theme:
    - Places of Worship … Christian Church
    - Places of Worship … Church
  addressCountry: CA
  addressLocality: Toronto
  addressRegion: 'ON'
  latitude: 43.7149710141
  longitude: -79.5720066264
  name: Berean Church Of God At T.O
  streetAddress: 15 Racine Rd
- _id: 'urn:x-opendata:ca:on:toronto:places-of-worship:1a_holley_ave:bibleway_church_of_god_in_christ'
  _source: places-of-worship
  _theme:
    - Places of Worship … Christian Church
    - Places of Worship … Church
  addressCountry: CA
  addressLocality: Toronto
  addressRegion: 'ON'
  latitude: 43.7058628558
  longitude: -79.5278652699
  name: Bibleway Church Of God In Christ
  streetAddress: 1A Holley Ave
- _id: 'urn:x-opendata:ca:on:toronto:places-of-worship:2822_weston_rd:bible_way_church_of_god'
  _source: places-of-worship
  _theme:
    - Places of Worship … Christian Church
    - Places of Worship … Church
  addressCountry: CA
  addressLocality: Toronto
  addressRegion: 'ON'
  latitude: 43.7201921101
  longitude: -79.5378124732
  name: Bible Way Church Of God
  streetAddress: 2822 Weston Rd
- _id: 'urn:x-opendata:ca:on:toronto:places-of-worship:2799_weston_rd:riverside_emery_united_church'
  _source: places-of-worship
  _theme:
    - Places of Worship … Christian Church
    - Places of Worship … Church
  addressCountry: CA
  addressLocality: Toronto
  addressRegion: 'ON'
  latitude: 43.7193067806
  longitude: -79.5371562747
  name: Riverside-Emery United Church
  streetAddress: 2799 Weston Rd
- _id: 'urn:x-opendata:ca:on:toronto:places-of-worship:30_gordon_mackay_rd:disciples_revival_church'
  _source: places-of-worship
  _theme:
    - Places of Worship … Christian Church
    - Places of Worship … Church
  addressCountry: CA
  addressLocality: Toronto
  addressRegion: 'ON'
  latitude: 43.7154412849
  longitude: -79.5096795401
  name: Disciples Revival Church
  streetAddress: 30 Gordon Mackay Rd
- _id: 'urn:x-opendata:ca:on:toronto:places-of-worship:69_william_st:westminister_united_church'
  _source: places-of-worship
  _theme:
    - Places of Worship … Christian Church
    - Places of Worship … Church
  addressCountry: CA
  addressLocality: Toronto
  addressRegion: 'ON'
  latitude: 43.7036631572
  longitude: -79.5126441021
  name: Westminister United Church
  streetAddress: 69 William St
- _id: 'urn:x-opendata:ca:on:toronto:places-of-worship:1871_weston_rd:weston_park_baptist_church'
  _source: places-of-worship
  _theme:
    - Places of Worship … Christian Church
    - Places of Worship … Church
  addressCountry: CA
  addressLocality: Toronto
  addressRegion: 'ON'
  latitude: 43.7000507191
  longitude: -79.5152660801
  name: Weston Park Baptist Church
  streetAddress: 1871 Weston Rd
- _id: 'urn:x-opendata:ca:on:toronto:places-of-worship:1871_weston_rd:weston_park_baptist_church'
  _source: places-of-worship
  _theme:
    - Places of Worship … Christian Church
    - Places of Worship … Church
  addressCountry: CA
  addressLocality: Toronto
  addressRegion: 'ON'
  latitude: 43.7000507191
  longitude: -79.5152660801
  name: Weston Park Baptist Church
  streetAddress: 1871 Weston Rd
- _id: 'urn:x-opendata:ca:on:toronto:places-of-worship:1736_weston_rd:grace_restoration_international_ministries'
  _source: places-of-worship
  _theme:
    - Places of Worship … Christian Church
    - Places of Worship … Church
  addressCountry: CA
  addressLocality: Toronto
  addressRegion: 'ON'
  latitude: 43.697904237
  longitude: -79.5110078522
  name: Grace Restoration International Ministries
  streetAddress: 1736 Weston Rd
- _id: 'urn:x-opendata:ca:on:toronto:places-of-worship:1831_weston_rd:bethel_apostolic_church'
  _source: places-of-worship
  _theme:
    - Places of Worship … Christian Church
    - Places of Worship … Church
  addressCountry: CA
  addressLocality: Toronto
  addressRegion: 'ON'
  latitude: 43.6996092041
  longitude: -79.5138288348
  name: Bethel Apostolic Church
  streetAddress: 1831 Weston Rd
- _id: 'urn:x-opendata:ca:on:toronto:places-of-worship:1831_weston_rd:bethel_apostolic_church'
  _source: places-of-worship
  _theme:
    - Places of Worship … Christian Church
    - Places of Worship … Church
  addressCountry: CA
  addressLocality: Toronto
  addressRegion: 'ON'
  latitude: 43.6996092041
  longitude: -79.5138288348
  name: Bethel Apostolic Church
  streetAddress: 1831 Weston Rd
- _id: 'urn:x-opendata:ca:on:toronto:places-of-worship:2040_weston_rd:masonic_lodge'
  _source: places-of-worship
  _theme:
    - Places of Worship … Christian Church
    - Places of Worship … Church
  addressCountry: CA
  addressLocality: Toronto
  addressRegion: 'ON'
  latitude: 43.7012321971
  longitude: -79.5214814971
  name: Masonic Lodge
  streetAddress: 2040 Weston Rd
- _id: 'urn:x-opendata:ca:on:toronto:places-of-worship:1_king_st:central_united_church'
  _source: places-of-worship
  _theme:
    - Places of Worship … Christian Church
    - Places of Worship … Church
  addressCountry: CA
  addressLocality: Toronto
  addressRegion: 'ON'
  latitude: 43.7015623023
  longitude: -79.520170853
  name: Central United Church
  streetAddress: 1 King St
- _id: 'urn:x-opendata:ca:on:toronto:places-of-worship:45_george_st:saint_john_the_evangelist'
  _source: places-of-worship
  _theme:
    - Places of Worship … Christian Church
    - Places of Worship … Church
  addressCountry: CA
  addressLocality: Toronto
  addressRegion: 'ON'
  latitude: 43.7034937357
  longitude: -79.5214069217
  name: Saint John The Evangelist
  streetAddress: 45 George St
- _id: 'urn:x-opendata:ca:on:toronto:places-of-worship:2125_weston_rd:saint_johns_anglican'
  _source: places-of-worship
  _theme:
    - Places of Worship … Christian Church
    - Places of Worship … Church
  addressCountry: CA
  addressLocality: Toronto
  addressRegion: 'ON'
  latitude: 43.7027827758
  longitude: -79.5240851306
  name: Saint Johns Anglican
  streetAddress: 2125 Weston Rd
- _id: 'urn:x-opendata:ca:on:toronto:places-of-worship:1579_royal_york_rd:saint_andrew_s_presbyterian_church'
  _source: places-of-worship
  _theme:
    - Places of Worship … Christian Church
    - Places of Worship … Church
  addressCountry: CA
  addressLocality: Toronto
  addressRegion: 'ON'
  latitude: 43.6994948544
  longitude: -79.5336225902
  name: "Saint Andrew's Presbyterian Church"
  streetAddress: 1579 Royal York Rd
- _id: 'urn:x-opendata:ca:on:toronto:places-of-worship:1483_royal_york_rd:westmount_park_church'
  _source: places-of-worship
  _theme:
    - Places of Worship … Christian Church
    - Places of Worship … Church
  addressCountry: CA
  addressLocality: Toronto
  addressRegion: 'ON'
  latitude: 43.6895673696
  longitude: -79.5293090568
  name: Westmount Park Church
  streetAddress: 1483 Royal York Rd
- _id: 'urn:x-opendata:ca:on:toronto:places-of-worship:59_kingdom_st:westmount_gospel_hall'
  _source: places-of-worship
  _theme:
    - Places of Worship … Christian Church
    - Places of Worship … Church
  addressCountry: CA
  addressLocality: Toronto
  addressRegion: 'ON'
  latitude: 43.6955232477
  longitude: -79.5161428642
  name: Westmount Gospel Hall
  streetAddress: 59 Kingdom St
- _id: 'urn:x-opendata:ca:on:toronto:places-of-worship:135_la_rose_ave:church_of_saint_demetrius'
  _source: places-of-worship
  _theme:
    - Places of Worship … Catholic Church
    - Places of Worship … Church
  addressCountry: CA
  addressLocality: Toronto
  addressRegion: 'ON'
  latitude: 43.6847948375
  longitude: -79.5226335007
  name: Church Of Saint Demetrius
  streetAddress: 135 La Rose Ave
- _id: 'urn:x-opendata:ca:on:toronto:places-of-worship:1415_royal_york_rd:all_saints_roman_catholic_parish'
  _source: places-of-worship
  _theme:
    - Places of Worship … Catholic Church
    - Places of Worship … Church
  addressCountry: CA
  addressLocality: Toronto
  addressRegion: 'ON'
  latitude: 43.6846897041
  longitude: -79.5269274326
  name: All Saints Roman Catholic Parish
  streetAddress: 1415 Royal York Rd
- _id: 'urn:x-opendata:ca:on:toronto:places-of-worship:1428_royal_york_rd:saint_matthias_anglican_church'
  _source: places-of-worship
  _theme:
    - Places of Worship … Christian Church
    - Places of Worship … Church
  addressCountry: CA
  addressLocality: Toronto
  addressRegion: 'ON'
  latitude: 43.6848653228
  longitude: -79.528319503
  name: Saint. Matthias Anglican Church
  streetAddress: 1428 Royal York Rd
- _id: 'urn:x-opendata:ca:on:toronto:places-of-worship:1447_royal_york_rd:humbervale_united_church'
  _source: places-of-worship
  _theme:
    - Places of Worship … Christian Church
    - Places of Worship … Church
  addressCountry: CA
  addressLocality: Toronto
  addressRegion: 'ON'
  latitude: 43.6865275325
  longitude: -79.5276550192
  name: Humbervale United Church
  streetAddress: 1447 Royal York Rd
- _id: 'urn:x-opendata:ca:on:toronto:places-of-worship:1315_kipling_ave:church_of_saint_wilfrid'
  _source: places-of-worship
  _theme:
    - Places of Worship … Christian Church
    - Places of Worship … Church
  addressCountry: CA
  addressLocality: Toronto
  addressRegion: 'ON'
  latitude: 43.6660832813
  longitude: -79.5457290684
  name: Church Of Saint Wilfrid
  streetAddress: 1315 Kipling Ave
- _id: 'urn:x-opendata:ca:on:toronto:places-of-worship:2588_st_clair_ave_w:bul_kwang_sa'
  _source: places-of-worship
  _theme:
    - Places of Worship … Buddhist Temple
    - Places of Worship … Buddhist Shrine
    - Places of Worship … Temple
  addressCountry: CA
  addressLocality: Toronto
  addressRegion: 'ON'
  latitude: 43.6676823479
  longitude: -79.4903341795
  name: Bul Kwang Sa
  streetAddress: 2588 St Clair Ave W
- _id: 'urn:x-opendata:ca:on:toronto:places-of-worship:2586_st_clair_ave_w:buddhism_zen_meditation_cent'
  _source: places-of-worship
  _theme:
    - Places of Worship … Buddhist Temple
    - Places of Worship … Buddhist Shrine
    - Places of Worship … Temple
  addressCountry: CA
  addressLocality: Toronto
  addressRegion: 'ON'
  latitude: 43.6677034307
  longitude: -79.4902378027
  name: Buddhism Zen Meditation Cent
  streetAddress: 2586 St Clair Ave W
- _id: 'urn:x-opendata:ca:on:toronto:places-of-worship:2586_st_clair_ave_w:korea_buddhism_chogye_order'
  _source: places-of-worship
  _theme:
    - Places of Worship … Buddhist Temple
    - Places of Worship … Buddhist Shrine
    - Places of Worship … Temple
  addressCountry: CA
  addressLocality: Toronto
  addressRegion: 'ON'
  latitude: 43.6677034307
  longitude: -79.4902378027
  name: Korea Buddhism Chogye Order
  streetAddress: 2586 St Clair Ave W
- _id: 'urn:x-opendata:ca:on:toronto:places-of-worship:3325_dundas_st_w:linh_son_buddhist_association'
  _source: places-of-worship
  _theme:
    - Places of Worship … Buddhist Temple
    - Places of Worship … Buddhist Shrine
    - Places of Worship … Temple
  addressCountry: CA
  addressLocality: Toronto
  addressRegion: 'ON'
  latitude: 43.6654351768
  longitude: -79.480950432
  name: Linh-Son Buddhist Association
  streetAddress: 3325 Dundas St W
- _id: 'urn:x-opendata:ca:on:toronto:places-of-worship:3339_dundas_st_w:celestial_church_of_christ'
  _source: places-of-worship
  _theme:
    - Places of Worship … Christian Church
    - Places of Worship … Church
  addressCountry: CA
  addressLocality: Toronto
  addressRegion: 'ON'
  latitude: 43.6653682915
  longitude: -79.481391223
  name: Celestial Church Of Christ
  streetAddress: 3339 Dundas St W
- _id: 'urn:x-opendata:ca:on:toronto:places-of-worship:22_oakmount_rd:ontario_zen_centre'
  _source: places-of-worship
  _theme:
    - Places of Worship … Buddhist Temple
    - Places of Worship … Buddhist Shrine
    - Places of Worship … Temple
  addressCountry: CA
  addressLocality: Toronto
  addressRegion: 'ON'
  latitude: 43.6551760526
  longitude: -79.4635445637
  name: Ontario Zen Centre
  streetAddress: 22 Oakmount Rd
- _id: 'urn:x-opendata:ca:on:toronto:places-of-worship:1701_bloor_st_w:saint_joan_of_arc'
  _source: places-of-worship
  _theme:
    - Places of Worship … Catholic Church
    - Places of Worship … Church
  addressCountry: CA
  addressLocality: Toronto
  addressRegion: 'ON'
  latitude: 43.654889945
  longitude: -79.4579236022
  name: Saint Joan Of Arc
  streetAddress: 1701 Bloor St W
- _id: 'urn:x-opendata:ca:on:toronto:places-of-worship:72_perth_ave:church_of_the_first_born'
  _source: places-of-worship
  _theme:
    - Places of Worship … Christian Church
    - Places of Worship … Church
  addressCountry: CA
  addressLocality: Toronto
  addressRegion: 'ON'
  latitude: 43.6561447142
  longitude: -79.44852288
  name: Church Of The First Born
  streetAddress: 72 Perth Ave
- _id: 'urn:x-opendata:ca:on:toronto:places-of-worship:2770a_dundas_st_w:chua_long_hoa_temple'
  _source: places-of-worship
  _theme:
    - Places of Worship … Buddhist Temple
    - Places of Worship … Buddhist Shrine
    - Places of Worship … Temple
  addressCountry: CA
  addressLocality: Toronto
  addressRegion: 'ON'
  latitude: 43.6654803255
  longitude: -79.4613761067
  name: Chua Long Hoa Temple
  streetAddress: 2770A Dundas St W
- _id: 'urn:x-opendata:ca:on:toronto:places-of-worship:28_heintzman_st:riwoche_tibetan_buddist_temp'
  _source: places-of-worship
  _theme:
    - Places of Worship … Buddhist Temple
    - Places of Worship … Buddhist Shrine
    - Places of Worship … Temple
  addressCountry: CA
  addressLocality: Toronto
  addressRegion: 'ON'
  latitude: 43.6660605599
  longitude: -79.4639063403
  name: Riwoche Tibetan Buddist Temp
  streetAddress: 28 Heintzman St
- _id: 'urn:x-opendata:ca:on:toronto:places-of-worship:163_annette_st:saint_cecilia_s_catholic_church'
  _source: places-of-worship
  _theme:
    - Places of Worship … Catholic Church
    - Places of Worship … Church
  addressCountry: CA
  addressLocality: Toronto
  addressRegion: 'ON'
  latitude: 43.6629644666
  longitude: -79.4672532788
  name: "Saint Cecilia's Catholic Church"
  streetAddress: 163 Annette St
- _id: 'urn:x-opendata:ca:on:toronto:places-of-worship:200_annette_st:annette_street_baptist_church'
  _source: places-of-worship
  _theme:
    - Places of Worship … Christian Church
    - Places of Worship … Church
  addressCountry: CA
  addressLocality: Toronto
  addressRegion: 'ON'
  latitude: 43.6631603669
  longitude: -79.4688095259
  name: Annette Street Baptist Church
  streetAddress: 200 Annette St
- _id: 'urn:x-opendata:ca:on:toronto:places-of-worship:33_41_mccormack_st:bibleway_pentecostal_church'
  _source: places-of-worship
  _theme:
    - Places of Worship … Christian Church
    - Places of Worship … Church
  addressCountry: CA
  addressLocality: Toronto
  addressRegion: 'ON'
  latitude: 43.6764266117
  longitude: -79.4734218744
  name: Bibleway Pentecostal Church
  streetAddress: 33-41 McCormack St
- _id: 'urn:x-opendata:ca:on:toronto:places-of-worship:33_41_mccormack_st:bibleway_pentecostal_church'
  _source: places-of-worship
  _theme:
    - Places of Worship … Christian Church
    - Places of Worship … Church
  addressCountry: CA
  addressLocality: Toronto
  addressRegion: 'ON'
  latitude: 43.6764266117
  longitude: -79.4734218744
  name: Bibleway Pentecostal Church
  streetAddress: 33-41 McCormack St
- _id: 'urn:x-opendata:ca:on:toronto:places-of-worship:274_weston_rd:apostolic_christian_church'
  _source: places-of-worship
  _theme:
    - Places of Worship … Christian Church
    - Places of Worship … Church
  addressCountry: CA
  addressLocality: Toronto
  addressRegion: 'ON'
  latitude: 43.6777402676
  longitude: -79.473116051
  name: Apostolic Christian Church
  streetAddress: 274 Weston Rd
- _id: 'urn:x-opendata:ca:on:toronto:places-of-worship:1780_st_clair_ave_w:church_of_god_prophecy'
  _source: places-of-worship
  _theme:
    - Places of Worship … Christian Church
    - Places of Worship … Church
  addressCountry: CA
  addressLocality: Toronto
  addressRegion: 'ON'
  latitude: 43.6741048248
  longitude: -79.4618740658
  name: Church Of God Prophecy
  streetAddress: 1780 St Clair Ave W
- _id: 'urn:x-opendata:ca:on:toronto:places-of-worship:1870_st_clair_ave_w:celestial_church_of_christ'
  _source: places-of-worship
  _theme:
    - Places of Worship … Christian Church
    - Places of Worship … Church
  addressCountry: CA
  addressLocality: Toronto
  addressRegion: 'ON'
  latitude: 43.6735053205
  longitude: -79.4644428974
  name: Celestial Church Of Christ
  streetAddress: 1870 St Clair Ave W
- _id: 'urn:x-opendata:ca:on:toronto:places-of-worship:238_rosemount_ave:church_of_god_apostolic'
  _source: places-of-worship
  _theme:
    - Places of Worship … Christian Church
    - Places of Worship … Church
  addressCountry: CA
  addressLocality: Toronto
  addressRegion: 'ON'
  latitude: 43.6755025088
  longitude: -79.446996851
  name: Church Of God Apostolic
  streetAddress: 238 Rosemount Ave
- _id: 'urn:x-opendata:ca:on:toronto:places-of-worship:1277_st_clair_ave_w:church_of_ste_nicola_di_bari'
  _source: places-of-worship
  _theme:
    - Places of Worship … Christian Church
    - Places of Worship … Church
  addressCountry: CA
  addressLocality: Toronto
  addressRegion: 'ON'
  latitude: 43.6767262334
  longitude: -79.4471535912
  name: Church Of Ste Nicola Di Bari
  streetAddress: 1277 St Clair Ave W
- _id: 'urn:x-opendata:ca:on:toronto:places-of-worship:11_boon_ave:boon_ave_baptist_church'
  _source: places-of-worship
  _theme:
    - Places of Worship … Christian Church
    - Places of Worship … Church
  addressCountry: CA
  addressLocality: Toronto
  addressRegion: 'ON'
  latitude: 43.6778643066
  longitude: -79.4460409949
  name: Boon Ave Baptist Church
  streetAddress: 11 Boon Ave
- _id: 'urn:x-opendata:ca:on:toronto:places-of-worship:236_nairn_ave:carisma_church'
  _source: places-of-worship
  _theme:
    - Places of Worship … Christian Church
    - Places of Worship … Church
  addressCountry: CA
  addressLocality: Toronto
  addressRegion: 'ON'
  latitude: 43.6837394975
  longitude: -79.4518039837
  name: Carisma Church
  streetAddress: 236 Nairn Ave
- _id: 'urn:x-opendata:ca:on:toronto:places-of-worship:48_bloem_ave:church_of_united_bretheren'
  _source: places-of-worship
  _theme:
    - Places of Worship … Christian Church
    - Places of Worship … Church
  addressCountry: CA
  addressLocality: Toronto
  addressRegion: 'ON'
  latitude: 43.6860658718
  longitude: -79.4484678901
  name: Church Of United Bretheren
  streetAddress: 48 Bloem Ave
- _id: 'urn:x-opendata:ca:on:toronto:places-of-worship:2050_dufferin_st:soka_gakkai_international'
  _source: places-of-worship
  _theme:
    - Places of Worship … Buddhist Temple
    - Places of Worship … Buddhist Shrine
    - Places of Worship … Temple
  addressCountry: CA
  addressLocality: Toronto
  addressRegion: 'ON'
  latitude: 43.6865927226
  longitude: -79.4469343949
  name: Soka Gakkai International
  streetAddress: 2050 Dufferin St
- _id: 'urn:x-opendata:ca:on:toronto:places-of-worship:223_225_chambers_ave:davenport_gospel_hall'
  _source: places-of-worship
  _theme:
    - Places of Worship … Christian Church
    - Places of Worship … Church
  addressCountry: CA
  addressLocality: Toronto
  addressRegion: 'ON'
  latitude: 43.6829585946
  longitude: -79.4654239346
  name: Davenport Gospel Hall
  streetAddress: 223-225 Chambers Ave
- _id: 'urn:x-opendata:ca:on:toronto:places-of-worship:338_weston_rd:van_hanh_vietnamese_youth'
  _source: places-of-worship
  _theme:
    - Places of Worship … Buddhist Temple
    - Places of Worship … Buddhist Shrine
    - Places of Worship … Temple
  addressCountry: CA
  addressLocality: Toronto
  addressRegion: 'ON'
  latitude: 43.6793308023
  longitude: -79.4748351401
  name: Van Hanh Vietnamese Youth
  streetAddress: 338 Weston Rd
- _id: 'urn:x-opendata:ca:on:toronto:places-of-worship:338_weston_rd:chua_xa_loi'
  _source: places-of-worship
  _theme:
    - Places of Worship … Christian Church
    - Places of Worship … Church
  addressCountry: CA
  addressLocality: Toronto
  addressRegion: 'ON'
  latitude: 43.6793308023
  longitude: -79.4748351401
  name: Chua Xa Loi
  streetAddress: 338 Weston Rd
- _id: 'urn:x-opendata:ca:on:toronto:places-of-worship:1100_weston_rd:york_temple_salvation_army'
  _source: places-of-worship
  _theme:
    - Places of Worship … Christian Church
    - Places of Worship … Church
  addressCountry: CA
  addressLocality: Toronto
  addressRegion: 'ON'
  latitude: 43.6859296983
  longitude: -79.4878148286
  name: York Temple Salvation Army
  streetAddress: 1100 Weston Rd
- _id: 'urn:x-opendata:ca:on:toronto:places-of-worship:1149_weston_rd:the_church_of_the_good_shepherd'
  _source: places-of-worship
  _theme:
    - Places of Worship … Christian Church
    - Places of Worship … Church
  addressCountry: CA
  addressLocality: Toronto
  addressRegion: 'ON'
  latitude: 43.6868437243
  longitude: -79.4886726694
  name: The Church Of The Good Shepherd
  streetAddress: 1149 Weston Rd
- _id: 'urn:x-opendata:ca:on:toronto:places-of-worship:117_guestville_ave:roman_catholic_episcopal'
  _source: places-of-worship
  _theme:
    - Places of Worship … Catholic Church
    - Places of Worship … Church
  addressCountry: CA
  addressLocality: Toronto
  addressRegion: 'ON'
  latitude: 43.6854732951
  longitude: -79.4897978877
  name: Roman Catholic Episcopal
  streetAddress: 117 Guestville Ave
- _id: 'urn:x-opendata:ca:on:toronto:places-of-worship:71_guestville_ave:mount_dennis_united_church'
  _source: places-of-worship
  _theme:
    - Places of Worship … Christian Church
    - Places of Worship … Church
  addressCountry: CA
  addressLocality: Toronto
  addressRegion: 'ON'
  latitude: 43.6840716279
  longitude: -79.489201871
  name: Mount Dennis United Church
  streetAddress: 71 Guestville Ave
- _id: 'urn:x-opendata:ca:on:toronto:places-of-worship:698_weston_rd:church_of_god'
  _source: places-of-worship
  _theme:
    - Places of Worship … Christian Church
    - Places of Worship … Church
  addressCountry: CA
  addressLocality: Toronto
  addressRegion: 'ON'
  latitude: 43.6820440416
  longitude: -79.4783577018
  name: Church Of God
  streetAddress: 698 Weston Rd
- _id: 'urn:x-opendata:ca:on:toronto:places-of-worship:40_pritchard_ave:anglican_church_canada'
  _source: places-of-worship
  _theme:
    - Places of Worship … Christian Church
    - Places of Worship … Church
  addressCountry: CA
  addressLocality: Toronto
  addressRegion: 'ON'
  latitude: 43.6707044611
  longitude: -79.4890457064
  name: Anglican Church Canada
  streetAddress: 40 Pritchard Ave
- _id: 'urn:x-opendata:ca:on:toronto:places-of-worship:755_jane_st:centro_cristiano'
  _source: places-of-worship
  _theme:
    - Places of Worship … Christian Church
    - Places of Worship … Church
  addressCountry: CA
  addressLocality: Toronto
  addressRegion: 'ON'
  latitude: 43.6714991902
  longitude: -79.4933084722
  name: Centro Cristiano
  streetAddress: 755 Jane St
- _id: 'urn:x-opendata:ca:on:toronto:places-of-worship:755_jane_st:deliverance_church_of_god'
  _source: places-of-worship
  _theme:
    - Places of Worship … Christian Church
    - Places of Worship … Church
  addressCountry: CA
  addressLocality: Toronto
  addressRegion: 'ON'
  latitude: 43.6714991902
  longitude: -79.4933084722
  name: Deliverance Church Of God
  streetAddress: 755 Jane St
- _id: 'urn:x-opendata:ca:on:toronto:places-of-worship:1530_weston_rd:beulah_church_of_jesus_christ'
  _source: places-of-worship
  _theme:
    - Places of Worship … Christian Church
    - Places of Worship … Church
  addressCountry: CA
  addressLocality: Toronto
  addressRegion: 'ON'
  latitude: 43.6937610909
  longitude: -79.5056589563
  name: Beulah Church Of Jesus Christ
  streetAddress: 1530 Weston Rd
- _id: 'urn:x-opendata:ca:on:toronto:places-of-worship:1322_weston_rd:celestial_church_of_christ'
  _source: places-of-worship
  _theme:
    - Places of Worship … Christian Church
    - Places of Worship … Church
  addressCountry: CA
  addressLocality: Toronto
  addressRegion: 'ON'
  latitude: 43.6896927549
  longitude: -79.4976007529
  name: Celestial Church Of Christ
  streetAddress: 1322 Weston Rd
- _id: 'urn:x-opendata:ca:on:toronto:places-of-worship:1272_weston_rd:mount_dennis_baptist_church'
  _source: places-of-worship
  _theme:
    - Places of Worship … Christian Church
    - Places of Worship … Church
  addressCountry: CA
  addressLocality: Toronto
  addressRegion: 'ON'
  latitude: 43.6886061464
  longitude: -79.4947335379
  name: Mount Dennis Baptist Church
  streetAddress: 1272 Weston Rd
- _id: 'urn:x-opendata:ca:on:toronto:places-of-worship:1182_weston_rd:bethel_born_again_church_of_christ_jesus'
  _source: places-of-worship
  _theme:
    - Places of Worship … Christian Church
    - Places of Worship … Church
  addressCountry: CA
  addressLocality: Toronto
  addressRegion: 'ON'
  latitude: 43.6874288987
  longitude: -79.4911290606
  name: Bethel Born Again Church of Christ Jesus
  streetAddress: 1182 Weston Rd
- _id: 'urn:x-opendata:ca:on:toronto:places-of-worship:1181a_weston_rd:international_gospel_church_of_christ_ministries'
  _source: places-of-worship
  _theme:
    - Places of Worship … Christian Church
    - Places of Worship … Church
  addressCountry: CA
  addressLocality: Toronto
  addressRegion: 'ON'
  latitude: 43.6876719711
  longitude: -79.4906496014
  name: International Gospel Church of Christ Ministries
  streetAddress: 1181A Weston Rd
- _id: 'urn:x-opendata:ca:on:toronto:places-of-worship:47_harding_ave:church_of_christ'
  _source: places-of-worship
  _theme:
    - Places of Worship … Christian Church
    - Places of Worship … Church
  addressCountry: CA
  addressLocality: Toronto
  addressRegion: 'ON'
  latitude: 43.6999180691
  longitude: -79.5004260855
  name: Church Of Christ
  streetAddress: 47 Harding Ave
- _id: 'urn:x-opendata:ca:on:toronto:places-of-worship:1_brookhaven_dr:church_of_saints_constantine'
  _source: places-of-worship
  _theme:
    - Places of Worship … Christian Church
    - Places of Worship … Church
  addressCountry: CA
  addressLocality: Toronto
  addressRegion: 'ON'
  latitude: 43.6971760928
  longitude: -79.4932898167
  name: Church Of Saints Constantine
  streetAddress: 1 Brookhaven Dr
- _id: 'urn:x-opendata:ca:on:toronto:places-of-worship:42_denison_rd_e:apostolic_united_assembly_to'
  _source: places-of-worship
  _theme:
    - Places of Worship … Christian Church
    - Places of Worship … Church
  addressCountry: CA
  addressLocality: Toronto
  addressRegion: 'ON'
  latitude: 43.6972843793
  longitude: -79.5048640024
  name: Apostolic United Assembly To
  streetAddress: 42 Denison Rd E
- _id: 'urn:x-opendata:ca:on:toronto:places-of-worship:1617_weston_rd:int_l_masters_church_of_god'
  _source: places-of-worship
  _theme:
    - Places of Worship … Christian Church
    - Places of Worship … Church
  addressCountry: CA
  addressLocality: Toronto
  addressRegion: 'ON'
  latitude: 43.6959261314
  longitude: -79.5074825791
  name: "Int'L Masters Church Of God"
  streetAddress: 1617 Weston Rd
- _id: 'urn:x-opendata:ca:on:toronto:places-of-worship:1901_jane_st:faith_sanctuary_pentecostal_church'
  _source: places-of-worship
  _theme:
    - Places of Worship … Christian Church
    - Places of Worship … Church
  addressCountry: CA
  addressLocality: Toronto
  addressRegion: 'ON'
  latitude: 43.71034998
  longitude: -79.5050562154
  name: Faith Sanctuary Pentecostal Church
  streetAddress: 1901 Jane St
- _id: 'urn:x-opendata:ca:on:toronto:places-of-worship:1990_jane_st:church_of_jesus_christ_of_la'
  _source: places-of-worship
  _theme:
    - Places of Worship … Christian Church
    - Places of Worship … Church
  addressCountry: CA
  addressLocality: Toronto
  addressRegion: 'ON'
  latitude: 43.7139294166
  longitude: -79.5074048156
  name: Church Of Jesus Christ Of La
  streetAddress: 1990 Jane St
- _id: 'urn:x-opendata:ca:on:toronto:places-of-worship:2380_keele_st:chu_linh_thuu_pagota'
  _source: places-of-worship
  _theme:
    - Places of Worship … Buddhist Temple
    - Places of Worship … Buddhist Shrine
    - Places of Worship … Temple
  addressCountry: CA
  addressLocality: Toronto
  addressRegion: 'ON'
  latitude: 43.7067498715
  longitude: -79.477964967
  name: Chu Linh Thuu Pagota
  streetAddress: 2380 Keele St
- _id: 'urn:x-opendata:ca:on:toronto:places-of-worship:49_milford_ave:faith_assemblies_mission'
  _source: places-of-worship
  _theme:
    - Places of Worship … Christian Church
    - Places of Worship … Church
  addressCountry: CA
  addressLocality: Toronto
  addressRegion: 'ON'
  latitude: 43.7044794871
  longitude: -79.4737087339
  name: Faith Assemblies Mission
  streetAddress: 49 Milford Ave
- _id: 'urn:x-opendata:ca:on:toronto:places-of-worship:1224_lawrence_ave_w:buddhist_association_of_canada'
  _source: places-of-worship
  _theme:
    - Places of Worship … Buddhist Temple
    - Places of Worship … Buddhist Shrine
    - Places of Worship … Temple
  addressCountry: CA
  addressLocality: Toronto
  addressRegion: 'ON'
  latitude: 43.7112612657
  longitude: -79.4691350544
  name: Buddhist Association of Canada
  streetAddress: 1224 Lawrence Ave W
- _id: 'urn:x-opendata:ca:on:toronto:places-of-worship:150_154_bentworth_ave:toronto_central_seventh_day_adventist_church'
  _source: places-of-worship
  _theme:
    - Places of Worship … Christian Church
    - Places of Worship … Church
  addressCountry: CA
  addressLocality: Toronto
  addressRegion: 'ON'
  latitude: 43.7202527037
  longitude: -79.4666951371
  name: Toronto Central Seventh Day Adventist Church
  streetAddress: 150-154 Bentworth Ave
- _id: 'urn:x-opendata:ca:on:toronto:places-of-worship:1161_caledonia_rd:bethlehem_united_church_of_jesus_christ'
  _source: places-of-worship
  _theme:
    - Places of Worship … Christian Church
    - Places of Worship … Church
  addressCountry: CA
  addressLocality: Toronto
  addressRegion: 'ON'
  latitude: 43.7156393705
  longitude: -79.4669137065
  name: Bethlehem United Church Of Jesus Christ
  streetAddress: 1161 Caledonia Rd
- _id: 'urn:x-opendata:ca:on:toronto:places-of-worship:783_793_lawrence_ave_w:philadelphia_halibethian_zion'
  _source: places-of-worship
  _theme:
    - Places of Worship … Christian Church
    - Places of Worship … Church
  addressCountry: CA
  addressLocality: Toronto
  addressRegion: 'ON'
  latitude: 43.7138263966
  longitude: -79.453929677
  name: Philadelphia Halibethian Zion
  streetAddress: 783-793 Lawrence Ave W
- _id: 'urn:x-opendata:ca:on:toronto:places-of-worship:811_lawrence_ave_w:saint_charles_roman_catholic_church'
  _source: places-of-worship
  _theme:
    - Places of Worship … Catholic Church
    - Places of Worship … Church
  addressCountry: CA
  addressLocality: Toronto
  addressRegion: 'ON'
  latitude: 43.7137495432
  longitude: -79.4553607169
  name: Saint Charles Roman Catholic Church
  streetAddress: 811 Lawrence Ave W
- _id: 'urn:x-opendata:ca:on:toronto:places-of-worship:2981_dufferin_st:parroquia_san_lorenzo'
  _source: places-of-worship
  _theme:
    - Places of Worship … Christian Church
    - Places of Worship … Church
  addressCountry: CA
  addressLocality: Toronto
  addressRegion: 'ON'
  latitude: 43.7110631972
  longitude: -79.4536935789
  name: Parroquia San Lorenzo
  streetAddress: 2981 Dufferin St
- _id: 'urn:x-opendata:ca:on:toronto:places-of-worship:1067_glencairn_ave:street_connection_christian'
  _source: places-of-worship
  _theme:
    - Places of Worship … Christian Church
    - Places of Worship … Church
  addressCountry: CA
  addressLocality: Toronto
  addressRegion: 'ON'
  latitude: 43.7064165567
  longitude: -79.4555947898
  name: Street Connection Christian
  streetAddress: 1067 Glencairn Ave
- _id: 'urn:x-opendata:ca:on:toronto:places-of-worship:2746_dufferin_st:fairbank_united_church'
  _source: places-of-worship
  _theme:
    - Places of Worship … Christian Church
    - Places of Worship … Church
  addressCountry: CA
  addressLocality: Toronto
  addressRegion: 'ON'
  latitude: 43.7030060991
  longitude: -79.4525640412
  name: Fairbank United Church
  streetAddress: 2746 Dufferin St
- _id: 'urn:x-opendata:ca:on:toronto:places-of-worship:435_hopewell_ave:burma_buddhist_association'
  _source: places-of-worship
  _theme:
    - Places of Worship … Buddhist Temple
    - Places of Worship … Buddhist Shrine
    - Places of Worship … Temple
  addressCountry: CA
  addressLocality: Toronto
  addressRegion: 'ON'
  latitude: 43.6995696375
  longitude: -79.4463074433
  name: Burma Buddhist Association
  streetAddress: 435 Hopewell Ave
- _id: 'urn:x-opendata:ca:on:toronto:places-of-worship:39_gurney_cres:church_of_god'
  _source: places-of-worship
  _theme:
    - Places of Worship … Christian Church
    - Places of Worship … Church
  addressCountry: CA
  addressLocality: Toronto
  addressRegion: 'ON'
  latitude: 43.7022504833
  longitude: -79.4671133146
  name: Church Of God
  streetAddress: 39 Gurney Cres
- _id: 'urn:x-opendata:ca:on:toronto:places-of-worship:24_densley_ave:faith_united_pentacostal'
  _source: places-of-worship
  _theme:
    - Places of Worship … Christian Church
    - Places of Worship … Church
  addressCountry: CA
  addressLocality: Toronto
  addressRegion: 'ON'
  latitude: 43.7037839137
  longitude: -79.4742947735
  name: Faith United Pentacostal
  streetAddress: 24 Densley Ave
- _id: 'urn:x-opendata:ca:on:toronto:places-of-worship:2186a_eglinton_ave_w:cecc_church'
  _source: places-of-worship
  _theme:
    - Places of Worship … Christian Church
    - Places of Worship … Church
  addressCountry: CA
  addressLocality: Toronto
  addressRegion: 'ON'
  latitude: 43.693477871
  longitude: -79.4614052232
  name: Cecc Church
  streetAddress: 2186A Eglinton Ave W
- _id: 'urn:x-opendata:ca:on:toronto:places-of-worship:1947_keele_st:2nd_iglesia_pentecostal_hisp'
  _source: places-of-worship
  _theme:
    - Places of Worship … Christian Church
    - Places of Worship … Church
  addressCountry: CA
  addressLocality: Toronto
  addressRegion: 'ON'
  latitude: 43.6886082661
  longitude: -79.4740279788
  name: 2Nd Iglesia Pentecostal Hisp
  streetAddress: 1947 Keele St
- _id: 'urn:x-opendata:ca:on:toronto:places-of-worship:228_ennerdale_rd:ennerdale_road_baptist_church'
  _source: places-of-worship
  _theme:
    - Places of Worship … Christian Church
    - Places of Worship … Church
  addressCountry: CA
  addressLocality: Toronto
  addressRegion: 'ON'
  latitude: 43.6943756795
  longitude: -79.4535138431
  name: Ennerdale Road Baptist Church
  streetAddress: 228 Ennerdale Rd
- _id: 'urn:x-opendata:ca:on:toronto:places-of-worship:119_ennerdale_rd:fairbank_gospel_hall'
  _source: places-of-worship
  _theme:
    - Places of Worship … Christian Church
    - Places of Worship … Church
  addressCountry: CA
  addressLocality: Toronto
  addressRegion: 'ON'
  latitude: 43.6909184661
  longitude: -79.4519034055
  name: Fairbank Gospel Hall
  streetAddress: 119 Ennerdale Rd
- _id: 'urn:x-opendata:ca:on:toronto:places-of-worship:641_eglinton_ave_w:eglinton_saint_george_s_united'
  _source: places-of-worship
  _theme:
    - Places of Worship … Christian Church
    - Places of Worship … Church
  addressCountry: CA
  addressLocality: Toronto
  addressRegion: 'ON'
  latitude: 43.7027626292
  longitude: -79.4163655761
  name: "Eglinton Saint George's United"
  streetAddress: 641 Eglinton Ave W
- _id: 'urn:x-opendata:ca:on:toronto:places-of-worship:1523_warden_ave:evangelical_church'
  _source: places-of-worship
  _theme:
    - Places of Worship … Christian Church
    - Places of Worship … Church
  addressCountry: CA
  addressLocality: Toronto
  addressRegion: 'ON'
  latitude: 43.762763745
  longitude: -79.3004785667
  name: Evangelical Church
  streetAddress: 1523 Warden Ave
- _id: 'urn:x-opendata:ca:on:toronto:places-of-worship:640_eglinton_ave_w:saint_thomas_aquinas_church'
  _source: places-of-worship
  _theme:
    - Places of Worship … Catholic Church
    - Places of Worship … Church
  addressCountry: CA
  addressLocality: Toronto
  addressRegion: 'ON'
  latitude: 43.7025861921
  longitude: -79.4186544236
  name: Saint Thomas Aquinas Church
  streetAddress: 640 Eglinton Ave W
- _id: 'urn:x-opendata:ca:on:toronto:places-of-worship:713_glencairn_ave:glencairn_baptist_church'
  _source: places-of-worship
  _theme:
    - Places of Worship … Christian Church
    - Places of Worship … Church
  addressCountry: CA
  addressLocality: Toronto
  addressRegion: 'ON'
  latitude: 43.7099462401
  longitude: -79.4382906852
  name: Glencairn Baptist Church
  streetAddress: 713 Glencairn Ave
- _id: 'urn:x-opendata:ca:on:toronto:places-of-worship:792_glencairn_ave:glad_tidings_tabernacle'
  _source: places-of-worship
  _theme:
    - Places of Worship … Christian Church
    - Places of Worship … Church
  addressCountry: CA
  addressLocality: Toronto
  addressRegion: 'ON'
  latitude: 43.7095833358
  longitude: -79.4423779968
  name: Glad Tidings Tabernacle
  streetAddress: 792 Glencairn Ave
- _id: 'urn:x-opendata:ca:on:toronto:places-of-worship:500_coldstream_ave:coldstream_presbyterian_church'
  _source: places-of-worship
  _theme:
    - Places of Worship … Christian Church
    - Places of Worship … Church
  addressCountry: CA
  addressLocality: Toronto
  addressRegion: 'ON'
  latitude: 43.7153563592
  longitude: -79.4292467897
  name: Coldstream Presbyterian Church
  streetAddress: 500 Coldstream Ave
- _id: 'urn:x-opendata:ca:on:toronto:places-of-worship:201_caribou_rd:saint_philip_anglican_church'
  _source: places-of-worship
  _theme:
    - Places of Worship … Christian Church
    - Places of Worship … Church
  addressCountry: CA
  addressLocality: Toronto
  addressRegion: 'ON'
  latitude: 43.7176255349
  longitude: -79.4283787056
  name: Saint Philip Anglican Church
  streetAddress: 201 Caribou Rd
- _id: 'urn:x-opendata:ca:on:toronto:places-of-worship:22_glen_park_ave:grace_tabernacle'
  _source: places-of-worship
  _theme:
    - Places of Worship … Christian Church
    - Places of Worship … Church
  addressCountry: CA
  addressLocality: Toronto
  addressRegion: 'ON'
  latitude: 43.7130587667
  longitude: -79.4305104694
  name: Grace Tabernacle
  streetAddress: 22 Glen Park Ave
- _id: 'urn:x-opendata:ca:on:toronto:places-of-worship:2565_bathurst_st:roman_catholic_episcopal'
  _source: places-of-worship
  _theme:
    - Places of Worship … Catholic Church
    - Places of Worship … Church
  addressCountry: CA
  addressLocality: Toronto
  addressRegion: 'ON'
  latitude: 43.7069817644
  longitude: -79.4264850598
  name: Roman Catholic Episcopal
  streetAddress: 2565 Bathurst St
- _id: 'urn:x-opendata:ca:on:toronto:places-of-worship:1041_avenue_rd:dharma_drum_toronto'
  _source: places-of-worship
  _theme:
    - Places of Worship … Buddhist Temple
    - Places of Worship … Buddhist Shrine
    - Places of Worship … Temple
  addressCountry: CA
  addressLocality: Toronto
  addressRegion: 'ON'
  latitude: 43.7049282848
  longitude: -79.4084202925
  name: Dharma Drum Toronto
  streetAddress: 1041 Avenue Rd
- _id: 'urn:x-opendata:ca:on:toronto:places-of-worship:2221_yonge_st:c_i_c'
  _source: places-of-worship
  _theme:
    - Places of Worship … Christian Church
    - Places of Worship … Church
  addressCountry: CA
  addressLocality: Toronto
  addressRegion: 'ON'
  latitude: 43.7060573198
  longitude: -79.3977654684
  name: C.I.C
  streetAddress: 2221 Yonge St
- _id: 'urn:x-opendata:ca:on:toronto:places-of-worship:40_broadway_ave:saint_monicas_roman_catholic_church'
  _source: places-of-worship
  _theme:
    - Places of Worship … Catholic Church
    - Places of Worship … Church
  addressCountry: CA
  addressLocality: Toronto
  addressRegion: 'ON'
  latitude: 43.7107140219
  longitude: -79.3967092668
  name: Saint Monicas Roman Catholic Church
  streetAddress: 40 Broadway Ave
- _id: 'urn:x-opendata:ca:on:toronto:places-of-worship:2510_yonge_st:friends_of_the_heart_meditation_centre'
  _source: places-of-worship
  _theme:
    - Places of Worship … Buddhist Temple
    - Places of Worship … Buddhist Shrine
    - Places of Worship … Temple
  addressCountry: CA
  addressLocality: Toronto
  addressRegion: 'ON'
  latitude: 43.7123945212
  longitude: -79.3998813178
  name: Friends of the Heart Meditation Centre
  streetAddress: 2510 Yonge St
- _id: 'urn:x-opendata:ca:on:toronto:places-of-worship:27_castlefield_ave:castlefield_apostolic_church'
  _source: places-of-worship
  _theme:
    - Places of Worship … Christian Church
    - Places of Worship … Church
  addressCountry: CA
  addressLocality: Toronto
  addressRegion: 'ON'
  latitude: 43.7112369813
  longitude: -79.4005822107
  name: Castlefield Apostolic Church
  streetAddress: 27 Castlefield Ave
- _id: 'urn:x-opendata:ca:on:toronto:places-of-worship:80_blythwood_rd:blythwood_rd_baptist_church'
  _source: places-of-worship
  _theme:
    - Places of Worship … Christian Church
    - Places of Worship … Church
  addressCountry: CA
  addressLocality: Toronto
  addressRegion: 'ON'
  latitude: 43.7175840878
  longitude: -79.3980822537
  name: Blythwood Rd Baptist Church
  streetAddress: 80 Blythwood Rd
- _id: 'urn:x-opendata:ca:on:toronto:places-of-worship:503_eglinton_ave_e:eglinton_gospel_hall'
  _source: places-of-worship
  _theme:
    - Places of Worship … Christian Church
    - Places of Worship … Church
  addressCountry: CA
  addressLocality: Toronto
  addressRegion: 'ON'
  latitude: 43.7101436485
  longitude: -79.3802705537
  name: Eglinton Gospel Hall
  streetAddress: 503 Eglinton Ave E
- _id: 'urn:x-opendata:ca:on:toronto:places-of-worship:111_manor_rd_e:church_of_the_transfiguratio'
  _source: places-of-worship
  _theme:
    - Places of Worship … Christian Church
    - Places of Worship … Church
  addressCountry: CA
  addressLocality: Toronto
  addressRegion: 'ON'
  latitude: 43.7032852927
  longitude: -79.3912573401
  name: Church Of The Transfiguratio
  streetAddress: 111 Manor Rd E
- _id: 'urn:x-opendata:ca:on:toronto:places-of-worship:26_delisle_ave:calvin_presbyterian_church'
  _source: places-of-worship
  _theme:
    - Places of Worship … Christian Church
    - Places of Worship … Church
  addressCountry: CA
  addressLocality: Toronto
  addressRegion: 'ON'
  latitude: 43.6892958184
  longitude: -79.3959690519
  name: Calvin Presbyterian Church
  streetAddress: 26 Delisle Ave
- _id: 'urn:x-opendata:ca:on:toronto:places-of-worship:1585_yonge_st:baptist_church'
  _source: places-of-worship
  _theme:
    - Places of Worship … Christian Church
    - Places of Worship … Church
  addressCountry: CA
  addressLocality: Toronto
  addressRegion: 'ON'
  latitude: 43.6905267367
  longitude: -79.3942304331
  name: Baptist Church
  streetAddress: 1585 Yonge St
- _id: 'urn:x-opendata:ca:on:toronto:places-of-worship:1570_yonge_st:christ_church_deer_park_angl'
  _source: places-of-worship
  _theme:
    - Places of Worship … Christian Church
    - Places of Worship … Church
  addressCountry: CA
  addressLocality: Toronto
  addressRegion: 'ON'
  latitude: 43.6902798306
  longitude: -79.3958133541
  name: Christ Church Deer Park Angl
  streetAddress: 1570 Yonge St
- _id: 'urn:x-opendata:ca:on:toronto:places-of-worship:208_st_clair_ave_e:roman_catholic_episcopal'
  _source: places-of-worship
  _theme:
    - Places of Worship … Catholic Church
    - Places of Worship … Church
  addressCountry: CA
  addressLocality: Toronto
  addressRegion: 'ON'
  latitude: 43.6902580688
  longitude: -79.3850879602
  name: Roman Catholic Episcopal
  streetAddress: 208 St Clair Ave E
- _id: 'urn:x-opendata:ca:on:toronto:places-of-worship:28_ted_rogers_way:anglican_church_house'
  _source: places-of-worship
  _theme:
    - Places of Worship … Christian Church
    - Places of Worship … Church
  addressCountry: CA
  addressLocality: Toronto
  addressRegion: 'ON'
  latitude: 43.6705878371
  longitude: -79.3805927628
  name: Anglican Church House
  streetAddress: 28 ted rogers Way
- _id: 'urn:x-opendata:ca:on:toronto:places-of-worship:227_bloor_st_e:anglican_church_of_canada'
  _source: places-of-worship
  _theme:
    - Places of Worship … Christian Church
    - Places of Worship … Church
  addressCountry: CA
  addressLocality: Toronto
  addressRegion: 'ON'
  latitude: 43.6709999937
  longitude: -79.3812420419
  name: Anglican Church Of Canada
  streetAddress: 227 Bloor St E
- _id: 'urn:x-opendata:ca:on:toronto:places-of-worship:1323_bay_st:the_jesuits_of_upper_canada'
  _source: places-of-worship
  _theme:
    - Places of Worship … Catholic Church
    - Places of Worship … Church
  addressCountry: CA
  addressLocality: Toronto
  addressRegion: 'ON'
  latitude: 43.6727064446
  longitude: -79.3904800695
  name: The Jesuits Of Upper Canada
  streetAddress: 1323 Bay St
- _id: 'urn:x-opendata:ca:on:toronto:places-of-worship:204_st_george_st:christian_science_committee'
  _source: places-of-worship
  _theme:
    - Places of Worship … Christian Church
    - Places of Worship … Church
  addressCountry: CA
  addressLocality: Toronto
  addressRegion: 'ON'
  latitude: 43.6704425543
  longitude: -79.401902956
  name: Christian Science Committee
  streetAddress: 204 St George St
- _id: 'urn:x-opendata:ca:on:toronto:places-of-worship:316_dupont_st:theravada_buddhist_community'
  _source: places-of-worship
  _theme:
    - Places of Worship … Buddhist Temple
    - Places of Worship … Buddhist Shrine
    - Places of Worship … Temple
  addressCountry: CA
  addressLocality: Toronto
  addressRegion: 'ON'
  latitude: 43.6747953314
  longitude: -79.4087513581
  name: Theravada Buddhist Community
  streetAddress: 316 Dupont St
- _id: 'urn:x-opendata:ca:on:toronto:places-of-worship:129_st_clair_ave_w:churches_corp_respons_'
  _source: places-of-worship
  _theme:
    - Places of Worship … Christian Church
    - Places of Worship … Church
  addressCountry: CA
  addressLocality: Toronto
  addressRegion: 'ON'
  latitude: 43.686464187
  longitude: -79.4001945678
  name: 'Churches &Corp. Respons.'
  streetAddress: 129 St Clair Ave W
- _id: 'urn:x-opendata:ca:on:toronto:places-of-worship:175_st_clair_ave_w:buddhist_practice_group_unitarian'
  _source: places-of-worship
  _theme:
    - Places of Worship … Buddhist Temple
    - Places of Worship … Buddhist Shrine
    - Places of Worship … Temple
  addressCountry: CA
  addressLocality: Toronto
  addressRegion: 'ON'
  latitude: 43.6861211424
  longitude: -79.4024268614
  name: Buddhist Practice Group - Unitarian
  streetAddress: 175 St Clair Ave W
- _id: 'urn:x-opendata:ca:on:toronto:places-of-worship:354_st_clair_ave_w:holy_rosary_church'
  _source: places-of-worship
  _theme:
    - Places of Worship … Catholic Church
    - Places of Worship … Church
  addressCountry: CA
  addressLocality: Toronto
  addressRegion: 'ON'
  latitude: 43.6843140033
  longitude: -79.4138927076
  name: Holy Rosary Church
  streetAddress: 354 St Clair Ave W
- _id: 'urn:x-opendata:ca:on:toronto:places-of-worship:354_st_clair_ave_w:holy_rosary_church'
  _source: places-of-worship
  _theme:
    - Places of Worship … Catholic Church
    - Places of Worship … Church
  addressCountry: CA
  addressLocality: Toronto
  addressRegion: 'ON'
  latitude: 43.6843140033
  longitude: -79.4138927076
  name: Holy Rosary Church
  streetAddress: 354 St Clair Ave W
- _id: 'urn:x-opendata:ca:on:toronto:places-of-worship:1443_bathurst_st:community_of_christ'
  _source: places-of-worship
  _theme:
    - Places of Worship … Christian Church
    - Places of Worship … Church
  addressCountry: CA
  addressLocality: Toronto
  addressRegion: 'ON'
  latitude: 43.6825699894
  longitude: -79.417746433
  name: Community Of Christ
  streetAddress: 1443 Bathurst St
- _id: 'urn:x-opendata:ca:on:toronto:places-of-worship:637_christie_st:gaden_choling'
  _source: places-of-worship
  _theme:
    - Places of Worship … Buddhist Temple
    - Places of Worship … Buddhist Shrine
    - Places of Worship … Temple
  addressCountry: CA
  addressLocality: Toronto
  addressRegion: 'ON'
  latitude: 43.6808317411
  longitude: -79.4251366559
  name: Gaden Choling
  streetAddress: 637 Christie St
- _id: 'urn:x-opendata:ca:on:toronto:places-of-worship:58a_arlington_ave:bracondale_gospel_hall'
  _source: places-of-worship
  _theme:
